X,Y,CCN,ADDRESS,DATE_OF_OFFENSE,TIME_OF_OFFENSE,DATE_OFFENSE_RECORDED,REPORT_YEAR,MONTH,POLICE_DISTRICT,WARD,TYPE_OF_HATE_BIAS,TARGETED_GROUP,TOP_OFFENSE_TYPE,MAR_ID,MAR_XCOORD,MAR_YCOORD,MAR_LATITUDE,MAR_LONGITUDE,SE_ANNO_CAD_DATA,GLOBALID,CREATED_USER,CREATED_DATE,LAST_EDITED_USER,LAST_EDITED_DATE,OBJECTID,SHAPE
-77.0151850956465,38.9111289486642,13005668,3rd St NW and Q St NW,2013/01/13 05:00:00+00,1808-1809,2013/01/13 05:00:00+00,2013,1,5D,Ward 5,Sexual Orientation,,Simple Assault,901240,398683.19001273,138139.95001363,38.91112116,-77.01518281,,{56AA3499-E6C4-45BE-8CB9-6284127274FF},,,MPD,2024/02/16 21:02:52+00,2251,
-77.0218075405059,38.9679410500389,13016960,600 block of Tewkesbury Pl NW,2013/02/05 05:00:00+00,2200,2013/02/07 05:00:00+00,2013,2,4D,Ward 4,Religion,Jewish,Damage/Defacing/Destruction of Property,803021,398110.33,144446.71,38.96793325,-77.02180525,,{8D1EF375-98EA-4D52-B5EF-66338BCC30EA},,,MPD,2024/02/16 21:02:52+00,2252,
-77.0229835388427,38.9029507962568,13017988,800 block of Mt Vernon Pl NW,2013/02/09 05:00:00+00,1400-1405,2013/02/09 05:00:00+00,2013,2,3D,Ward 2,Sexual Orientation,,Simple Assault,813971,398006.6,137232.25,38.90294301,-77.02298125,,{A92A7DAF-D3B6-47B3-A7C5-30E29EDFE21D},,,MPD,2024/02/16 21:02:52+00,2253,
-77.0080923909328,38.8346776865708,13024055,3800 block of South Capitol St SE,2013/02/22 05:00:00+00,1440-1448,2013/02/22 05:00:00+00,2013,2,7D,Ward 8,Gender Identity/Expression,,ADW,811674,399297.59,129653.21,38.83466991,-77.00809011,,{2725FA67-4304-49BA-971F-FCEB4243E867},,,MPD,2024/02/16 21:02:52+00,2254,
-77.0332438056735,38.917004587679,13027781,1400 block of U St NW,2013/03/03 05:00:00+00,0159-0200,2013/03/03 05:00:00+00,2013,3,3D,Ward 2,Sexual Orientation,,Simple Assault,802845,397117.19,138792.61,38.9169968,-77.03324151,,{8516BAD1-9231-43B7-8ECA-A985280FECB7},,,MPD,2024/02/16 21:02:52+00,2255,
-77.0396554650008,38.9246640795471,13031810,1700 block of Columbia Rd NW,2013/03/11 04:00:00+00,2034,2013/03/11 04:00:00+00,2013,3,3D,Ward 1,Sexual Orientation,,Threats,800952,396561.52,139643.1,38.92465629,-77.03965317,,{B84BB6AC-9F30-4468-9AD3-646B6BFBD1FB},,,MPD,2024/02/16 21:02:52+00,2256,
-76.9672354710177,38.8676581070057,13032136,2800 block of Texas Ave SE Apt B5,2013/03/12 04:00:00+00,1400,2013/03/12 04:00:00+00,2013,3,6D,Ward 7,Sexual Orientation,,Threats,801310,402843.60777659,133314.74866515,38.86765032,-76.9672332,,{8B2B03DA-79BC-480F-8499-03292D6C80E3},,,MPD,2024/02/16 21:02:52+00,2257,
-77.0158203240768,38.9165114363281,13033386,1900 block of 3rd St NW,2013/03/14 04:00:00+00,2249-2250,2013/03/14 04:00:00+00,2013,3,3D,Ward 1,Sexual Orientation,,Simple Assault,805459,398628.2,138737.46,38.91650365,-77.01581803,,{96A31CAF-0B3D-48E9-8EAE-6B6AFB334ADC},,,MPD,2024/02/16 21:02:52+00,2258,
-76.9943615210471,38.900209966604,13036237,800 block of H St NE,2013/03/20 04:00:00+00,1737,2013/03/20 04:00:00+00,2013,3,1D,Ward 6,Gender Identity/Expression,,Simple Assault,812904,400489.3,136927.76,38.90020218,-76.99435924,,{0894C0A5-6ED4-43DF-BC99-D87912849DE0},,,MPD,2024/02/16 21:02:52+00,2259,
-77.0239575879362,38.9169979424866,13037458,9th St NW and U St NW,2013/03/23 04:00:00+00,0210-0215,2013/03/23 04:00:00+00,2013,3,3D,Ward 1,Sexual Orientation,,Simple Assault,900954,397922.51999603,138791.61999823,38.91699015,-77.0239553,,{F7B495C5-2502-4290-9ABC-2C80D3273B6B},,,MPD,2024/02/16 21:02:52+00,2260,
-77.0396554650008,38.9246640795471,13044090,1700 block of Columbia Rd NW,2013/04/06 04:00:00+00,0124,2013/04/06 04:00:00+00,2013,4,3D,Ward 1,Race,Asian,Simple Assault,800952,396561.52,139643.1,38.92465629,-77.03965317,,{E4ED1308-AD8C-4972-AC97-5FC7362A2268},,,MPD,2024/02/16 21:02:52+00,2261,
-76.9411424281998,38.8841459476645,13046481,4400 block of Texas Ave SE,2013/04/10 04:00:00+00,1904,2013/04/10 04:00:00+00,2013,4,6D,Ward 7,Ethnicity/National Origin,Latino/Hispanic,ADW,804930,405106.86461069,135146.15903485,38.88413816,-76.94114016,,{F9F0D0C9-F091-48C7-B0B2-0DD134A372BA},,,MPD,2024/02/16 21:02:52+00,2262,
-76.9937982915684,38.8615099878848,13046217,Howard Rd SE and Martin Luther King Jr Ave SE,2013/04/10 04:00:00+00,1044,2013/04/10 04:00:00+00,2013,4,7D,Ward 8,Sexual Orientation,,Simple Assault,902586,400538.44825445,132631.77064851,38.86150221,-76.99379601,,{590D37D3-277D-4DDA-A8A5-42B35C2ADA7F},,,MPD,2024/02/16 21:02:52+00,2263,
-77.0319524771756,38.9080463335711,13053916,1300 block of 14th St NW,2013/04/25 04:00:00+00,5300,2013/04/25 04:00:00+00,2013,4,3D,Ward 2,Sexual Orientation,,Robbery,802156,397228.83,137798.13,38.90803854,-77.03195018,,{19853AF2-5243-415D-8988-E736CAD08F88},,,MPD,2024/02/16 21:02:52+00,2264,
-77.0270417110095,38.9105556842231,13059479,11th St NW and Rhode Island Ave NW,2013/05/03 04:00:00+00,1800,2013/05/05 04:00:00+00,2013,5,3D,Ward 2,Sexual Orientation,,Damage/Defacing/Destruction of Property,906102,397654.84319578,138076.55081357,38.9105479,-77.02703942,,{F4307671-B12E-408B-BFB0-7D9DD61CA3A9},,,MPD,2024/02/16 21:02:52+00,2265,
-76.9799399046093,38.9015545898341,13064348,1600 block of Maryland Ave NE,2013/05/12 04:00:00+00,1800-1900,2013/05/14 04:00:00+00,2013,5,5D,Ward 5,Sexual Orientation,,Simple Assault,809645,401740.25,137077.2,38.9015468,-76.97993763,,{5323BCE0-7CC0-4876-AA3B-6D89550CD5C9},,,MPD,2024/02/16 21:02:52+00,2266,
-76.9804120159451,38.8964380103393,13067771,500 block of 17th St NE,2013/05/21 04:00:00+00,0115-0118,2013/05/21 04:00:00+00,2013,5,5D,Ward 7,Race,White,Simple Assault,802353,401699.42,136509.21,38.89643022,-76.98040974,,{E5515C98-3D65-41F0-9040-91CAACB7DE68},,,MPD,2024/02/16 21:02:52+00,2267,
-77.0390641962061,38.9143243383526,13073757,1800 block of New Hampshire Ave NW,2013/06/01 04:00:00+00,0215,2013/06/01 04:00:00+00,2013,6,3D,Ward 2,Sexual Orientation,,Robbery,813547,396612.3,138495.28,38.91431655,-77.0390619,,{54C46BD7-ECF7-44FD-82DC-EEB16EB4F6D9},,,MPD,2024/02/16 21:02:52+00,2268,
-76.9316644707118,38.9078734347425,13075701,1300 block of 49th St NE,2013/06/04 04:00:00+00,1800,2013/06/04 04:00:00+00,2013,6,6D,Ward 7,Sexual Orientation,,Simple Assault,801552,405927.23,137780.67,38.90786564,-76.93166221,,{053D3ADD-6A1B-4563-9269-7BAE00910417},,,MPD,2024/02/16 21:02:52+00,2269,
-76.926016714176,38.8943656154204,13077377,5200 block of Cloud Pl NE,2013/06/07 04:00:00+00,1957,2013/06/07 04:00:00+00,2013,6,6D,Ward 7,Race,White,Threats,807563,406418.29910791,136281.5760599,38.89435783,-76.92601445,,{925D56E4-B97F-4474-8600-6E25022D12D5},,,MPD,2024/02/16 21:02:52+00,2270,
-77.0058867726756,38.8337546316613,13080496,3800 block of 1st St SE,2013/06/13 04:00:00+00,1825-1830,2013/06/13 04:00:00+00,2013,6,7D,Ward 8,Sexual Orientation,,Simple Assault,811521,399489.08239748,129550.72997365,38.83374686,-77.00588449,,{75CE8BA0-2984-41AB-80AD-763252A3DBE6},,,MPD,2024/02/16 21:02:52+00,2271,
-77.0192055904926,38.9012292607558,13081164,500 block of Massachusetts Ave NW,2013/06/14 04:00:00+00,2123-2124,2013/06/14 04:00:00+00,2013,6,1D,Ward 2,Sexual Orientation,,Simple Assault,806791,398334.26,137041.07,38.90122147,-77.0192033,,{B9E3136A-CFC2-4C88-BD44-3964FC5E0BD0},,,MPD,2024/02/16 21:02:52+00,2272,
-76.9822293701577,38.8662546092758,13081519,16th St SE and Good Hope Rd SE,2013/06/15 04:00:00+00,1248,2013/06/15 04:00:00+00,2013,6,7D,Ward 8,Sexual Orientation,,Simple Assault,901851,401542.41999938,133158.590009,38.86624683,-76.98222709,,{09C21B20-0A62-4956-A76E-F8561F556AD7},,,MPD,2024/02/16 21:02:52+00,2273,
-76.9846742533237,38.9054902461732,13084477,1500 block of Tinidad Ave NE,2013/06/20 04:00:00+00,1841-1855,2013/06/20 04:00:00+00,2013,6,5D,Ward 5,Race,White,Threats,800035,401329.51,137514.01,38.90548246,-76.98467197,,{C7AE34B0-5B19-4928-B8D1-AE3208B53733},,,MPD,2024/02/16 21:02:52+00,2274,
-77.0319555858751,38.914470001592,13086807,1800 block of 14th St NW,2013/06/24 04:00:00+00,2100,2013/06/24 04:00:00+00,2013,6,3D,Ward 2,Gender Identity/Expression,,Simple Assault,810471,397228.81,138511.21,38.91446221,-77.03195329,,{14014E51-99C6-4E6F-A742-8222B1A30255},,,MPD,2024/02/16 21:02:52+00,2275,
-76.9137675439217,38.8962993655398,13088119,500 block of Eastern Ave NE,2013/06/27 04:00:00+00,0535-0536,2013/06/27 04:00:00+00,2013,6,6D,Ward 7,Gender Identity/Expression,,ADW,804552,407480.72,136497.17,38.89629157,-76.91376529,,{18A55490-5CC3-4BCF-A97E-228F09294EEA},,,MPD,2024/02/16 21:02:52+00,2276,
-76.9739743126414,38.8635423389654,13093081,2300 block of Good Hope Rd SE,2013/07/03 04:00:00+00,2030-2040,2013/07/03 04:00:00+00,2013,7,7D,Ward 8,Sexual Orientation,,ADW,815940,402258.92,132857.68,38.86353456,-76.97397204,,{8195C4C2-61B1-40B4-8CF5-C6D9803CE4EA},,,MPD,2024/02/16 21:02:52+00,2277,
-77.0169191262798,38.9025278086911,13095740,400 block of K St NW,2013/07/07 04:00:00+00,1810-1200,2013/07/08 04:00:00+00,2013,7,1D,Ward 6,Race,Black,Threats,816529,398532.62,137185.18,38.90252002,-77.01691684,,{F4D16430-A201-43F1-8F99-019C6D03A5AB},,,MPD,2024/02/16 21:02:52+00,2278,
-77.0300204822679,38.8998355507956,13095260,1300 block of H St NW,2013/07/09 04:00:00+00,1345,2013/07/09 04:00:00+00,2013,7,2D,Ward 2,Race,Multiple,Threats,803708,397396.1,136886.61,38.89982776,-77.03001819,,{12375C1F-6DE2-4065-9C68-A15981099AA1},,,MPD,2024/02/16 21:02:52+00,2279,
-77.0319537815252,38.9191926208164,13096591,14th St NW and W St NW,2013/07/11 04:00:00+00,2155-2215,2013/07/11 04:00:00+00,2013,7,3D,Ward 1,Sexual Orientation,,ADW,905984,397229.15001138,139035.45999846,38.91918483,-77.03195149,,{42DC0CCA-7821-43F3-A4E2-3884C07A4210},,,MPD,2024/02/16 21:02:52+00,2280,
-77.0307884077483,38.9170078728893,13097871,1300 block of U Street NW,2013/07/14 04:00:00+00,0219,2013/07/14 04:00:00+00,2013,7,3D,Ward 1,Race,White,Simple Assault,804518,397330.13,138792.9,38.91700008,-77.03078611,,{93B53DFA-0F5D-4816-A3BD-CF87D8888163},,,MPD,2024/02/16 21:02:52+00,2281,
-77.0413007310602,38.9216247320086,13097888,2300 block of Champlain St NW,2013/07/14 04:00:00+00,0248,2013/07/14 04:00:00+00,2013,7,3D,Ward 1,Race,Black,Simple Assault,813215,396418.7,139305.77,38.92161694,-77.04129843,,{79CF8D16-B312-4855-9592-F0D7F225D297},,,MPD,2024/02/16 21:02:52+00,2282,
-77.0416831324842,38.9182889923559,13101721,2100 block of 18th St NW,2013/07/21 04:00:00+00,0418,2013/07/21 04:00:00+00,2013,7,3D,Ward 1,Race,White,ADW,813741,396385.37,138935.49,38.9182812,-77.04168083,,{517390DB-BDB1-4428-B047-B1DB53466CD5},,,MPD,2024/02/16 21:02:52+00,2283,
-77.020914492172,38.8998196995033,13104935,600 block of H St NW,2013/07/26 04:00:00+00,2340-2349,2013/07/26 04:00:00+00,2013,7,1D,Ward 2,Gender Identity/Expression,,Simple Assault,807858,398185.99,136884.63,38.89981191,-77.0209122,,{920EAB6D-A6F5-4597-AD2E-4742985B9665},,,MPD,2024/02/16 21:02:52+00,2284,
-77.0396125289498,38.9231455613056,13105009,1700 block of Euclid St NW,2013/07/27 04:00:00+00,0126,2013/07/27 04:00:00+00,2013,7,3D,Ward 1,Race,White,Robbery,803896,396565.17,139474.53,38.92313777,-77.03961023,,{357D3E28-B1AB-48BD-AAD9-0514FDE93D71},,,MPD,2024/02/16 21:02:52+00,2285,
-77.0058879300899,38.9046946742164,13108311,1st ST NE and Pierce St NE,2013/08/01 04:00:00+00,2100-2105,2013/08/02 04:00:00+00,2013,8,1D,Ward 6,Sexual Orientation,,Damage/Defacing/Destruction of Property,901051,399489.49001348,137425.59999696,38.90468689,-77.00588564,,{3AE8A99C-DA10-4195-8618-D44F1F5BEEE3},,,MPD,2024/02/16 21:02:52+00,2286,
-77.0255165960402,38.9418803715162,13109824,Georgia Ave NW and Upshur St NW,2013/08/04 04:00:00+00,1100-1101,2013/08/04 04:00:00+00,2013,8,4D,Ward 4,Gender Identity/Expression,,ADW,901333,397788.0900119,141553.82000079,38.94187258,-77.0255143,,{CEBE48D3-E3D1-432F-B75B-DD5AFBA54359},,,MPD,2024/02/16 21:02:52+00,2287,
-77.0332436347909,38.9181221614116,13120264,1400 block of V St NW,2013/08/24 04:00:00+00,0051,2013/08/24 04:00:00+00,2013,8,3D,Ward 1,Gender Identity/Expression,,ADW,811679,397117.25,138916.67,38.91811437,-77.03324134,,{A849BE65-123F-4D33-83D1-974CAE2E5D5F},,,MPD,2024/02/16 21:02:52+00,2288,
-76.9372536380768,38.8891016963331,13125881,4500 block of Benning Rd SE,2013/09/03 04:00:00+00,2133,2013/09/03 04:00:00+00,2013,9,6D,Ward 7,Ethnicity/National Origin,Asian,Simple Assault,803852,405443.89,135696.51,38.88909391,-76.93725137,,{DCC55C18-BD45-4A29-824F-AC5233CE902A},,,MPD,2024/02/16 21:02:52+00,2289,
-77.020914492172,38.8998196995033,13128491,600 block of H St NW,2013/09/08 04:00:00+00,1555-1559,2013/09/08 04:00:00+00,2013,9,1D,Ward 2,Race,Asian,Simple Assault,807858,398185.99,136884.63,38.89981191,-77.0209122,,{7FEF7696-269F-4ADE-8050-6D357916EA7E},,,MPD,2024/02/16 21:02:52+00,2290,
-77.0035132401417,38.9172839282845,13131421,2000 block of 2nd St NE,2013/09/14 04:00:00+00,0150,2013/09/14 04:00:00+00,2013,9,5D,Ward 5,Sexual Orientation,,Simple Assault,806269,399695.52,138823.1,38.91727614,-77.00351095,,{C8A924C0-BA9D-4B68-AEC7-2A87E0D8D9B4},,,MPD,2024/02/16 21:02:52+00,2291,
-77.0519054257246,38.9242076033088,13133719,2600 block of Connecticut Ave NW,2013/09/17 04:00:00+00,13-133719,2013/09/17 04:00:00+00,2013,9,2D,Ward 3,Religion,Jewish,Damage/Defacing/Destruction of Property,807493,395499.25,139592.96,38.92419981,-77.05190312,,{1BF6D592-18C9-4418-A326-99E33D9F3360},,,MPD,2024/02/16 21:02:52+00,2292,
-76.9925446566259,38.8584308303037,13145014,2600 block of Stanton Rd SE,2013/10/08 04:00:00+00,2230-2238,2013/10/08 04:00:00+00,2013,10,7D,Ward 8,Sexual Orientation,,Robbery,811275,400647.28,132289.97,38.85842305,-76.99254238,,{69CB160F-8975-4499-A7D7-E1AC7F6B5BD6},,,MPD,2024/02/16 21:02:52+00,2293,
-76.9256200185062,38.8818553185762,13149438,5300 block of E St SE,2013/10/17 04:00:00+00,1643,2013/10/17 04:00:00+00,2013,10,6D,Ward 7,Sexual Orientation,,Damage/Defacing/Destruction of Property,815121,406453.84419594,134892.86447461,38.88184753,-76.92561776,,{584CE8C5-2AF2-4A1D-B318-5B6E90797CE0},,,MPD,2024/02/16 21:02:52+00,2294,
-77.0259414922037,38.9268615487222,13150239,Harvard St NW and Sherman Ave NW,2013/10/19 04:00:00+00,0030,2013/10/19 04:00:00+00,2013,10,3D,Ward 1,Sexual Orientation,,ADW,905903,397750.78066787,139886.61049525,38.92685376,-77.0259392,,{C725FA39-BBED-4DB4-9A22-EE875BDDB01E},,,MPD,2024/02/16 21:02:52+00,2295,
-76.9908890922677,38.8825277431881,13155414,1100 block of Pennsylvania Ave SE,2013/10/26 04:00:00+00,1500,2013/10/26 04:00:00+00,2013,10,1D,Ward 6,Gender Identity/Expression,,Simple Assault,800670,400790.70681469,134964.91916268,38.88251996,-76.99088681,,{6FDBA580-C100-43E0-BBB6-8381D336804E},,,MPD,2024/02/16 21:02:52+00,2296,
-77.021921360622,38.9029466268509,13154097,7th St NW and Mount Vernon Pl NW,2013/10/26 04:00:00+00,0228,2013/10/26 04:00:00+00,2013,10,3D,Ward 6,Gender Identity/Expression,,Simple Assault,904395,398098.73350019,137231.76447678,38.90293884,-77.02191907,,{54BD8DBB-3B75-48C1-A434-90F3AAF57FE9},,,MPD,2024/02/16 21:02:52+00,2297,
-77.0365007496088,38.9186374567917,13180758,2100 block of 16th St NW,2013/12/18 05:00:00+00,1951,2013/12/18 05:00:00+00,2013,12,3D,Ward 1,Race,Black,Simple Assault,805292,396834.81,138973.98,38.91862967,-77.03649845,,{97156780-DBF9-4E17-94E1-871C089FCC9C},,,MPD,2024/02/16 21:02:52+00,2298,
-76.9997189518702,38.8330243738162,13180997,400 block of Xenia St SE,2013/12/19 05:00:00+00,0815-0820,2013/12/19 05:00:00+00,2013,12,7D,Ward 8,Race,Unspecified,ADW,801020,400024.6,129469.65,38.8330166,-76.99971667,,{C2F9FD1C-E8A6-4EA1-8CF4-196E03C7E7E3},,,MPD,2024/02/16 21:02:52+00,2299,
-76.9713563317619,38.8516665262436,14001090,2400 block of Alabama Ave SE,2014/01/03 05:00:00+00,0242,2014/01/01 05:00:00+00,2014,1,7D,Ward 8,Sexual Orientation,,Robbery,806892,402486.54336026,131539.4476395,38.85165875,-76.97135406,,{ACDA7FCF-7090-4CD7-A2AD-0AF2F27E5215},,,MPD,2024/02/16 21:02:52+00,2300,
-77.0073516864204,38.9542902092414,14012327,5300 block of RockCreek Church Rd NE,2014/01/26 05:00:00+00,0129-0140,2014/01/26 05:00:00+00,2014,1,4D,Ward 5,Sexual Orientation,,Simple Assault,812346,399362.97,142931.14,38.95428241,-77.0073494,,{A11F10AB-DAA2-4EFC-A53A-A9CBB96B6862},,,MPD,2024/02/16 21:02:52+00,2301,
-76.996173594083,38.890377856885,14016376,Unit block of 7th St NE,2014/02/03 05:00:00+00,1525-1558,2014/02/03 05:00:00+00,2014,2,1D,Ward 6,Political Affiliation,,Threats,808382,400332.16,135836.31,38.89037007,-76.99617131,,{AC436B50-8EA2-43FB-93E1-B670B00B7876},,,MPD,2024/02/16 21:02:52+00,2302,
-77.0718981328182,38.922553804513,14017169,3600 block of Calvert St NW,2014/02/04 05:00:00+00,0900-1200,2014/02/04 05:00:00+00,2014,2,2D,Ward 3,Sexual Orientation,,Damage/Defacing/Destruction of Property,804152,393765.45,139410.55,38.92254601,-77.07189583,,{708101DC-1436-480D-AA74-F9347503BD94},,,MPD,2024/02/16 21:02:52+00,2303,
-77.0147886703067,38.8954446425989,14018072,400 block of 2nd St NW,2014/02/07 05:00:00+00,0650-0653,2014/02/07 05:00:00+00,2014,2,1D,Ward 6,Gender Identity/Expression,,Simple Assault,279729,398717.29,136398.86,38.89543686,-77.01478638,,{F0FC917C-E003-436B-968C-A05A854EF7EF},,,MPD,2024/02/16 21:02:52+00,2304,
-77.0403007981408,38.9042457411316,14020570,1100 block of Connecticut Ave NW,2014/02/12 05:00:00+00,1000-1005,2014/02/12 05:00:00+00,2014,2,2D,Ward 2,Sexual Orientation,,Simple Assault,807498,396504.56,137376.52,38.90423795,-77.0402985,,{F1534C7F-9EC5-489B-A76D-7EC1D51F4C6C},,,MPD,2024/02/16 21:02:52+00,2305,
-77.0105973688667,38.922380232145,14023245,Unit block of Channing St NW,2014/02/18 05:00:00+00,2135-2140,2014/02/18 05:00:00+00,2014,2,3D,Ward 5,Sexual Orientation,,Threats,811709,399081.23,139388.88,38.92237244,-77.01059508,,{35957864-2D21-48FC-9736-499287CEA30D},,,MPD,2024/02/16 21:02:52+00,2306,
-77.0436092614514,38.9099352176321,14024251,1300 block of Connecticut Ave NW,2014/02/20 05:00:00+00,2233,2014/02/20 05:00:00+00,2014,2,2D,Ward 2,Religion,Muslim,Damage/Defacing/Destruction of Property,800193,396217.89,138008.23,38.90992743,-77.04360696,,{51C1086F-7013-427A-8FF8-1B2E72FC6D1F},,,MPD,2024/02/16 21:02:52+00,2307,
-77.0514187809942,38.9029852354212,14024321,24th St NW and Pennsylvania Ave NW,2014/02/21 05:00:00+00,0150-0154,2014/02/21 05:00:00+00,2014,2,2D,Ward 2,Sexual Orientation,,Simple Assault,900099,395540.12207381,137237.07820479,38.90297745,-77.05141648,,{60A98EDF-FAAE-4021-B42B-6F6689DBAC66},,,MPD,2024/02/16 21:02:52+00,2308,
-77.0145484059231,38.9421966407002,14025713,200 block of Upshur St NW,2014/02/23 05:00:00+00,1700-1711,2014/02/23 05:00:00+00,2014,2,4D,Ward 4,Disability,,Simple Assault,800327,398738.96,141588.72,38.94218884,-77.01454612,,{02E1DFDC-D276-48DC-B206-81564F40C785},,,MPD,2024/02/16 21:02:52+00,2309,
-76.9975691902957,38.8607798451617,14027299,1100 block of Summer Rd SE,2014/02/26 05:00:00+00,2019,2014/02/26 05:00:00+00,2014,2,7D,Ward 8,Sexual Orientation,,Simple Assault,809887,400211.17174215,132550.70396044,38.86077206,-76.99756691,,{F1ECBB30-689D-48FA-80FC-20A2C7689582},,,MPD,2024/02/16 21:02:52+00,2310,
-77.0401601076432,38.9484059132861,14029582,4700 block of Blagden Terrace NW,2014/03/03 05:00:00+00,1700,2014/03/03 05:00:00+00,2014,3,4D,Ward 4,Sexual Orientation,,Sexual Abuse,807557,396518.92,142278.67,38.94839812,-77.04015781,,{C571D824-315F-4F7F-A059-A9CF018923A3},,,MPD,2024/02/16 21:02:52+00,2311,
-77.0279521294854,38.9619873611676,14036236,5900 block of Georgia Ave NW,2014/03/16 04:00:00+00,1601-1615,2014/03/16 04:00:00+00,2014,3,4D,Ward 4,Sexual Orientation,,Simple Assault,816437,397577.63,143785.94,38.96197956,-77.02794983,,{EDF61DFA-A8A8-44B0-B750-8C3EAFA24919},,,MPD,2024/02/16 21:02:52+00,2312,
-76.983790075875,38.8468592802987,14037147,1400 block of Congress Pl SE,2014/03/18 04:00:00+00,1920-1929,2014/03/18 04:00:00+00,2014,3,7D,Ward 8,Gender Identity/Expression,,Threats,801783,401407.35657526,131005.544375,38.8468515,-76.9837878,,{1BE91F5A-108D-46FE-A3D9-9E2A43AD7284},,,MPD,2024/02/16 21:02:52+00,2313,
-76.9280145346192,38.8814805329844,14051643,5200 block of F St SE,2014/04/14 04:00:00+00,1845-1850,2014/04/14 04:00:00+00,2014,4,6D,Ward 7,Gender Identity/Expression,,ADW,810329,406246.11472375,134851.09394657,38.88147275,-76.92801227,,{8C3A0EA8-35A0-4283-9944-AADB8AF90342},,,MPD,2024/02/16 21:02:52+00,2314,
-76.997040713199,38.9328153666832,14052101,600 block of Michigan Ave NE,2014/04/15 04:00:00+00,1455-1500,2014/04/15 04:00:00+00,2014,4,5D,Ward 5,Gender Identity/Expression,,Robbery,814865,400256.78,140547.22,38.93280757,-76.99703843,,{E4E63A41-CA07-4867-A81F-44CCF387AD33},,,MPD,2024/02/16 21:02:52+00,2315,
-77.0398504645378,38.9170117998201,14054249,1700 block of U St NW,2014/04/19 04:00:00+00,1900-1901,2014/04/19 04:00:00+00,2014,4,3D,Ward 2,Sexual Orientation,,Simple Assault,808175,396544.24,138793.64,38.91700401,-77.03984817,,{7EDF2F96-FC6B-4181-AD22-B2FEDD007595},,,MPD,2024/02/16 21:02:52+00,2316,
-77.0518016668584,38.8980561578198,14055712,2400 block of Virginia Ave NW,2014/04/22 04:00:00+00,1725,2014/04/22 04:00:00+00,2014,4,2D,Ward 2,Homelessness,,Simple Assault,804406,395506.6,136689.93,38.89804837,-77.05179937,,{9340D977-C45D-4370-A124-11AA67AA2C5B},,,MPD,2024/02/16 21:02:52+00,2317,
-77.0327957447313,38.9025305560349,14067414,1400 block of K St NW,2014/05/12 04:00:00+00,1700-1910,2014/05/13 04:00:00+00,2014,5,2D,Ward 2,Religion,Jewish,Damage/Defacing/Destruction of Property,805270,397155.47,137185.86,38.90252277,-77.03279345,,{871912DD-34AF-4FF0-A51F-C239CB051177},,,MPD,2024/02/16 21:02:52+00,2318,
-77.0327378468684,38.9316144252323,14068447,3400 block of 14th St NW,2014/05/15 04:00:00+00,0150-0153,2014/05/15 04:00:00+00,2014,5,4D,Ward 1,Gender Identity/Expression,,ADW,805082,397161.65,140414.41,38.93160663,-77.03273555,,{F041DD83-B81B-4B74-B62C-641B2EEE89FC},,,MPD,2024/02/16 21:02:52+00,2319,
-77.0532984533546,38.9062416499669,14073281,1200 block of 25th St NW,2014/05/23 04:00:00+00,0439,2014/05/23 04:00:00+00,2014,5,2D,Ward 2,Race,White,Damage/Defacing/Destruction of Property,800476,395377.29,137598.66,38.90623386,-77.05329615,,{3C9207A4-35F1-49E5-B38C-0E2936E0CC17},,,MPD,2024/02/16 21:02:52+00,2320,
-77.0072755105189,38.8251589440866,14074002,Unit block of Forrester St SW,2014/05/24 04:00:00+00,1248,2014/05/24 04:00:00+00,2014,5,7D,Ward 8,Sexual Orientation,,Simple Assault,810043,399368.43,128596.56,38.82515117,-77.00727323,,{7FC895D2-06E7-465D-A03D-35AC8735709C},,,MPD,2024/02/16 21:02:52+00,2321,
-77.0307876911204,38.9118758233668,14074059,1300 block of Corcoran St NW,2014/05/24 04:00:00+00,1520-1522,2014/05/24 04:00:00+00,2014,5,3D,Ward 2,Race,Black,Damage/Defacing/Destruction of Property,811946,397330,138223.2,38.91186803,-77.0307854,,{F8F9E57D-0887-483A-B586-5CE8A2A633B7},,,MPD,2024/02/16 21:02:52+00,2322,
-76.9815032941509,38.8672737137364,14082778,1600 block of T St SE,2014/06/08 04:00:00+00,1500,2014/06/08 04:00:00+00,2014,6,6D,Ward 8,Sexual Orientation,,Threats,807225,401605.40950344,133271.73055311,38.86726593,-76.98150102,,{09A232AB-E1BF-4B2B-BD2B-08CD4AF7F86B},,,MPD,2024/02/16 21:02:52+00,2323,
-77.0071038514963,38.8846456709948,14083820,400 block of New Jersey Ave SE,2014/06/10 04:00:00+00,1342-1722,2014/06/10 04:00:00+00,2014,6,1D,Ward 6,Religion,Muslim,Threats,812200,399383.85,135200.01,38.88463789,-77.00710157,,{23E6AA38-C4C7-4311-9E9E-80BB82E1FED3},,,MPD,2024/02/16 21:02:52+00,2324,
-77.0273354190814,38.9511777691516,14088758,5000 block of Georgia Ave NW,2014/06/18 04:00:00+00,2335-2338,2014/06/18 04:00:00+00,2014,6,4D,Ward 4,Race,Unspecified,ADW,804988,397630.72,142585.96,38.95116997,-77.02733312,,{C8392D6E-F1FD-4CDC-9208-4C32767D9499},,,MPD,2024/02/16 21:02:52+00,2325,
-77.0327378468684,38.9316144252323,14095037,3400 block of 14th St NW,2014/06/29 04:00:00+00,0226-0233,2014/06/29 04:00:00+00,2014,6,4D,Ward 1,Sexual Orientation,,Threats,805082,397161.65,140414.41,38.93160663,-77.03273555,,{2F849DE2-ABD5-4F61-97DF-46A60E5233AE},,,MPD,2024/02/16 21:02:52+00,2326,
-77.0175522300509,38.9037415911665,14096982,400 block of L St NW,2014/07/02 04:00:00+00,1500-1504,2014/07/02 04:00:00+00,2014,7,1D,Ward 6,Sexual Orientation,,Simple Assault,808638,398477.73,137319.93,38.9037338,-77.01754994,,{2F46139D-35B6-451C-BA94-9E7EC8E94A45},,,MPD,2024/02/16 21:02:52+00,2327,
-77.0244008704367,38.9369769444542,14098533,3700 block of Georgia Ave NW,2014/07/05 04:00:00+00,0305-0309,2014/07/05 04:00:00+00,2014,7,4D,Ward 4,Sexual Orientation,,ADW,809816,397884.67,141009.47,38.93696915,-77.02439858,,{6FDCF4C4-DB67-442D-86E9-78E8CEEC4652},,,MPD,2024/02/16 21:02:52+00,2328,
-77.0453028117291,38.9076587945028,14100355,1300 block of New Hampshire Ave NW,2014/07/08 04:00:00+00,1155,2014/07/08 04:00:00+00,2014,7,2D,Ward 2,Religion,Jewish,Damage/Defacing/Destruction of Property,805753,396070.88,137755.6,38.90765101,-77.04530051,,{3E9385D0-901D-4CBA-BF95-EA7EA7B559AA},,,MPD,2024/02/16 21:02:52+00,2329,
-76.9108239931592,38.8940164231268,14104831,63rd St NE and Eastern Ave NE,2014/07/16 04:00:00+00,0509,2014/07/16 04:00:00+00,2014,7,6D,Ward 7,Gender Identity/Expression,,Threats,903707,407736.31562113,136243.99081187,38.89400863,-76.91082174,,{49D1D4DC-28C2-4D8D-B8E6-4B9A474106E8},,,MPD,2024/02/16 21:02:52+00,2330,
-77.0246367626532,38.9170041971694,14107657,900 block of U St NW,2014/07/20 04:00:00+00,1844-1845,2014/07/20 04:00:00+00,2014,7,3D,Ward 1,Gender Identity/Expression,,Simple Assault,813703,397863.62,138792.33,38.91699641,-77.02463447,,{2792D840-8B3E-4C9C-B1DA-951757BA0343},,,MPD,2024/02/16 21:02:52+00,2331,
-76.9719094408153,38.8477897692808,14110263,2200 block of Savannah St SE,2014/07/25 04:00:00+00,0817,2014/07/25 04:00:00+00,2014,7,7D,Ward 8,Gender Identity/Expression,,ADW,811092,402438.66448022,131109.0853991,38.84778199,-76.97190717,,{3F467661-BAAC-4261-92EA-5E049EAD50A1},,,MPD,2024/02/16 21:02:52+00,2332,
-76.9426136209183,38.8924226413342,14111571,100 block of 42nd St NE,2014/07/27 04:00:00+00,0333,2014/07/27 04:00:00+00,2014,7,6D,Ward 7,Gender Identity/Expression,,Threats,811325,404978.64179457,136064.8548117,38.89241485,-76.94261136,,{AC6B1BF9-EFF6-4637-ADCC-A2C310AA5F8B},,,MPD,2024/02/16 21:02:52+00,2333,
-77.0384868410645,38.9115051897783,14112064,1600 block of 17th St NW,2014/07/28 04:00:00+00,0255-0257,2014/07/28 04:00:00+00,2014,7,3D,Ward 2,Race,Black,Simple Assault,808622,396662.24,138182.31,38.9114974,-77.03848454,,{0E1735AC-AB4F-409E-8E49-30955F27453E},,,MPD,2024/02/16 21:02:52+00,2334,
-77.0308500517259,38.9616800814931,14115423,1300 block of Missouri Ave NW,2014/08/02 04:00:00+00,1541-1548,2014/08/02 04:00:00+00,2014,8,4D,Ward 4,Gender Identity/Expression,,Threats,808087,397326.46,143751.91,38.96167228,-77.03084775,,{F234DA2C-0551-45C2-9356-D7C222C0B110},,,MPD,2024/02/16 21:02:52+00,2335,
-77.0121183009141,38.9576687226588,14115367,100 block of Longfellow St NW,2014/08/02 04:00:00+00,1311,2014/08/02 04:00:00+00,2014,8,4D,Ward 4,Race,Black,Simple Assault,808616,398949.86,143306.23,38.95766092,-77.01211601,,{E33F4507-25FF-4524-B7F7-86F770D653A8},,,MPD,2024/02/16 21:02:52+00,2336,
-76.9903992090408,38.8638133853439,14115487,Mapleview Pl SE and Martin Luther King Jr Ave SE,2014/08/02 04:00:00+00,1620-1627,2014/08/02 04:00:00+00,2014,8,7D,Ward 8,Gender Identity/Expression,,Robbery,901523,400833.43001473,132887.49000875,38.8638056,-76.99039693,,{3E5F0AC3-CFFF-473D-A6E5-8F973538B733},,,MPD,2024/02/16 21:02:52+00,2337,
-77.0319558970722,38.9159364685239,14115840,1900 block of 14th St NW,2014/08/03 04:00:00+00,0420-0421,2014/08/03 04:00:00+00,2014,8,3D,Ward 2,Race,Black,Simple Assault,810664,397228.84,138674,38.91592868,-77.0319536,,{09C5A2AB-6A06-401C-B9C7-EA3A6B8D364C},,,MPD,2024/02/16 21:02:52+00,2338,
-76.9723369748309,38.8995621895693,14120697,600 block of 24th St NE,2014/08/11 04:00:00+00,1830-1839,2014/08/11 04:00:00+00,2014,8,5D,Ward 5,Sexual Orientation,,Simple Assault,809840,402399.81,136856.2,38.8995544,-76.9723347,,{A9EE3651-B015-44A4-83CB-91E1C7296B29},,,MPD,2024/02/16 21:02:52+00,2339,
-76.9860826586724,38.9066075479653,14121614,1200 block of Queen St NE,2014/08/11 04:00:00+00,1000,2014/08/13 04:00:00+00,2014,8,5D,Ward 5,Ethnicity/National Origin,Asian,Damage/Defacing/Destruction of Property,812799,401207.33,137638.02,38.90659976,-76.98608038,,{79508B8F-F41A-4909-B198-EA87CAEAFED6},,,MPD,2024/02/16 21:02:52+00,2340,
-77.0136750122494,38.911128594686,14121846,100 block of Q St NW,2014/08/13 04:00:00+00,1935,2014/08/13 04:00:00+00,2014,8,3D,Ward 5,Gender Identity/Expression,,Simple Assault,807731,398814.16,138139.89,38.9111208,-77.01367272,,{28537CE9-C06A-42E1-9C7A-C245B2BB83D8},,,MPD,2024/02/16 21:02:52+00,2341,
-77.0396125289498,38.9231455613056,14122597,1700 block of Euclid St NW,2014/08/15 04:00:00+00,0144-0200,2014/08/15 04:00:00+00,2014,8,3D,Ward 1,Sexual Orientation,,Simple Assault,803896,396565.17,139474.53,38.92313777,-77.03961023,,{9489948A-E621-499C-A83F-288C849F8E9C},,,MPD,2024/02/16 21:02:52+00,2342,
-77.0279521294854,38.9619873611676,14136225,5900 block of Georgia Ave NW,2014/09/05 04:00:00+00,0840-0845,2014/09/05 04:00:00+00,2014,9,4D,Ward 4,Sexual Orientation,,Simple Assault,816437,397577.63,143785.94,38.96197956,-77.02794983,,{72EE1F48-555C-4D1D-8B6F-36ABB97573C8},,,MPD,2024/02/16 21:02:52+00,2343,
-77.0660434162848,38.9051178650364,14139611,33rd St NW and M St NW,2014/09/13 04:00:00+00,0034-0035,2014/09/13 04:00:00+00,2014,9,2D,Ward 2,Sexual Orientation,,ADW,901272,394271.74956064,137474.63343701,38.90511008,-77.06604111,,{CEC2D74E-3EE9-4B0C-BD43-0A457FB7751D},,,MPD,2024/02/16 21:02:52+00,2344,
-76.9848973245787,38.9077465064782,14142139,1200 block of Meigs Pl NE,2014/09/17 04:00:00+00,1300-1510,2014/09/17 04:00:00+00,2014,9,5D,Ward 5,Sexual Orientation,,Damage/Defacing/Destruction of Property,801458,401310.12,137764.47,38.90773872,-76.98489505,,{C9EAD067-9BAD-4FDC-AED7-771D609A4D44},,,MPD,2024/02/16 21:02:52+00,2345,
-77.0327325598736,38.9366787151543,14143753,3600 block of 14th St NW,2014/09/20 04:00:00+00,0230-0317,2014/09/20 04:00:00+00,2014,9,4D,Ward 1,Gender Identity/Expression,,Simple Assault,805862,397162.31,140976.59,38.93667092,-77.03273026,,{E31D056C-5BF5-495E-AAF5-DE3A2BF702FC},,,MPD,2024/02/16 21:02:52+00,2346,
-76.9718671859922,38.8747586710105,14157939,2300 block of Fairlawn Ave SE,2014/10/13 04:00:00+00,2255-2345,2014/10/13 04:00:00+00,2014,10,6D,Ward 7,Race,White,Damage/Defacing/Destruction of Property,809587,402441.41,134102.83,38.87475089,-76.97186491,,{12724A09-0AFF-4609-8549-04AFD6B67338},,,MPD,2024/02/16 21:02:52+00,2347,
-77.1061970018558,38.9357468348256,14159610,5200 block of Loughboro Rd NW,2014/10/16 04:00:00+00,1906-1908,2014/10/16 04:00:00+00,2014,10,2D,Ward 3,Race,Black,Simple Assault,809789,390792.88,140877.99,38.93573904,-77.10619468,,{BE0F8C4D-29C0-4564-B62A-DFECBCB88891},,,MPD,2024/02/16 21:02:52+00,2348,
-77.0219166772032,38.8984541183497,14169001,7th St NW and G ST NW,2014/10/31 04:00:00+00,2350-2359,2014/11/01 04:00:00+00,2014,11,1D,Ward 2,Sexual Orientation,,Simple Assault,903249,398099.02002819,136733.05999632,38.89844633,-77.02191439,,{4F3370CE-59E8-4AE1-8742-AE5B3169642B},,,MPD,2024/02/16 21:02:52+00,2349,
-76.9820738201267,38.8662266594207,14169959,1600 block of Good Hope Rd SE,2014/11/02 04:00:00+00,1727-1945,2014/11/02 04:00:00+00,2014,11,7D,Ward 8,Sexual Orientation,,Simple Assault,800922,401555.92,133155.49,38.86621888,-76.98207154,,{985C5D15-079D-4202-BB3B-5F648ED3850C},,,MPD,2024/02/16 21:02:52+00,2350,
-77.0163779969034,38.8812971316823,14169801,300 block of G St SW,2014/11/02 04:00:00+00,1000,2014/11/02 04:00:00+00,2014,11,1D,Ward 6,Race,White,Threats,805863,398579.13506863,134828.39999455,38.88128935,-77.01637571,,{C6A09589-77FA-4A6C-87D9-17BFFDB39C14},,,MPD,2024/02/16 21:02:52+00,2351,
-77.0219179703159,38.9049133809198,14170617,1100 block of 7th St NW,2014/11/02 04:00:00+00,2047,2014/11/03 05:00:00+00,2014,11,3D,Ward 2,Ethnicity/National Origin,Indian,Simple Assault,814320,398099.08,137450.09,38.90490559,-77.02191568,,{7912B614-A851-42E2-853E-A6BD211C0F11},,,MPD,2024/02/16 21:02:52+00,2352,
-77.0354087839786,38.9312582687328,14176146,1500 block of Park Rd NW,2014/11/13 05:00:00+00,1340-1509,2014/11/13 05:00:00+00,2014,11,3D,Ward 1,Race,Unspecified,ADW,811355,396930.05,140374.96,38.93125048,-77.03540649,,{74C0FB8A-9D17-40AD-BD85-6BBABFCBBF65},,,MPD,2024/02/16 21:02:52+00,2353,
-77.03752812299,38.9025328250662,14177125,1600 block of K St NW,2014/11/15 05:00:00+00,0323-0330,2014/11/15 05:00:00+00,2014,11,2D,Ward 2,Sexual Orientation,,Simple Assault,814017,396744.98,137186.27,38.90252504,-77.03752583,,{10A6873B-5E96-4D29-B641-4F03C2084CCF},,,MPD,2024/02/16 21:02:52+00,2354,
-76.9937578770246,38.9215924980366,15005239,2300 block of Washington Pl NE,2015/01/11 05:00:00+00,1700-1710,2015/01/11 05:00:00+00,2015,1,5D,Ward 5,Sexual Orientation,,Damage/Defacing/Destruction of Property,815797,400541.5,139301.4,38.92158471,-76.99375559,,{CDCD5303-C62D-475E-BA27-7A27D5D79A5C},,,MPD,2024/02/16 21:02:52+00,2355,
-77.0767351621647,38.9507353644847,15007779,3900 block of Chesapeake St NW,2015/01/16 05:00:00+00,1622-1628,2015/01/16 05:00:00+00,2015,1,2D,Ward 3,Sexual Orientation,,Simple Assault,807279,393348.63,142539.29,38.95072757,-77.07673285,,{1938370E-ECE0-42D0-AFF8-E20CA8AE4FD2},,,MPD,2024/02/16 21:02:52+00,2356,
-77.0175551063634,38.8948182680566,15008222,300 block of Indiana Ave NW,2015/01/18 05:00:00+00,1200-1220,2015/01/18 05:00:00+00,2015,1,1D,Ward 6,Sexual Orientation,,ADW,814307,398477.29,136329.37,38.89481048,-77.01755282,,{010DD1E1-72E4-4FF5-99A9-0E37B2729BA8},,,MPD,2024/02/16 21:02:52+00,2357,
-77.0617148988052,38.9431619864526,15011758,3000 block of Van Ness St NW,2015/01/23 05:00:00+00,1730-0930,2015/01/24 05:00:00+00,2015,1,2D,Ward 3,Race,Black,Damage/Defacing/Destruction of Property,812163,394650.05,141697.59,38.94315419,-77.06171259,,{91D8F7A5-FD1D-4CC4-B848-DF62B02EA2A8},,,MPD,2024/02/16 21:02:52+00,2358,
-77.0327321588336,38.9295246790098,15018054,3100 block of 14th St NW,2015/02/05 05:00:00+00,1820-1821,2015/02/05 05:00:00+00,2015,2,3D,Ward 1,Gender Identity/Expression,,Simple Assault,800897,397162.06,140182.43,38.92951689,-77.03272986,,{052EA5CD-8518-485B-A9E2-A5BAD4E0AED9},,,MPD,2024/02/16 21:02:52+00,2359,
-77.0684761861626,38.9527097930098,15022921,4800 block of Connecticut Ave NW,2015/02/13 05:00:00+00,2100-1445,2015/02/15 05:00:00+00,2015,2,2D,Ward 3,Race,Black,Damage/Defacing/Destruction of Property,801847,394064.7,142757.9,38.952702,-77.06847388,,{23FD5A9C-E583-4195-A7F8-5D09A852EC06},,,MPD,2024/02/16 21:02:52+00,2360,
-76.9925446566259,38.8584308303037,15026882,2600 block of Stanton Rd SE,2015/02/24 05:00:00+00,2025-2026,2015/02/24 05:00:00+00,2015,2,7D,Ward 8,Sexual Orientation,,Simple Assault,811275,400647.28,132289.97,38.85842305,-76.99254238,,{99BEF2E4-01B7-44DF-89EA-AE71FE48E201},,,MPD,2024/02/16 21:02:52+00,2361,
-76.9894862254356,38.8638512564795,15035070,1200 block of Pleasant St SE,2015/03/13 04:00:00+00,1548,2015/03/14 04:00:00+00,2015,3,7D,Ward 8,Gender Identity/Expression,,Robbery,811988,400912.6654388,132891.70271275,38.86384348,-76.98948395,,{55BEB85D-21B4-4E34-BCE4-EC2FAE97EA03},,,MPD,2024/02/16 21:02:52+00,2362,
-77.0619471527165,38.9025999005137,15038284,3100 block of K St NW,2015/03/19 04:00:00+00,1350-1400,2015/03/19 04:00:00+00,2015,3,2D,Ward 2,Sexual Orientation,,Threats,800966,394626.86,137194.87,38.90259211,-77.06194485,,{F83087DB-1EB3-4534-ADBB-14986BDCB1D9},,,MPD,2024/02/16 21:02:52+00,2363,
-77.0482146641193,38.9045568643906,15039950,1100 block of New Hampshire Ave NW,2015/03/22 04:00:00+00,1315-1318,2015/03/22 04:00:00+00,2015,3,2D,Ward 2,Sexual Orientation,,Simple Assault,815281,395818.14,137411.39,38.90454908,-77.04821237,,{F239045C-7FBF-4F18-9794-219DBE26C1DB},,,MPD,2024/02/16 21:02:52+00,2364,
-77.0394481247044,38.9025308862905,15045344,17th St NW and K St NW,2015/03/31 04:00:00+00,1230-1250,2015/04/01 04:00:00+00,2015,4,2D,Ward 2,Political Affiliation,,Theft,900722,396578.43749878,137186.12502074,38.9025231,-77.03944583,,{1A1E78F3-8539-4DCB-A2AE-2B39AF17D8D6},,,MPD,2024/02/16 21:02:52+00,2365,
-77.0209121502843,38.9008756598781,15057805,600 block of I St NW,2015/04/23 04:00:00+00,1530-1532,2015/04/23 04:00:00+00,2015,4,1D,Ward 2,Religion,Jewish,Threats,809882,398186.22,137001.85,38.90086787,-77.02090986,,{C48BF48D-DFE0-406A-8243-7989A3FA734F},,,MPD,2024/02/16 21:02:52+00,2366,
-77.0448943751799,38.9064581391204,15058585,1200 block of 20th St NW,2015/04/24 04:00:00+00,2120,2015/04/24 04:00:00+00,2015,4,2D,Ward 2,Political Affiliation,,Arson,812026,396106.24,137622.3,38.90645035,-77.04489208,,{9E07E428-952C-4020-ABAF-1CC9105639B2},,,MPD,2024/02/16 21:02:52+00,2367,
-77.0448760086212,38.914098601614,15062996,20th ST NW and S St NW,2015/04/29 04:00:00+00,2335-2345,2015/05/02 04:00:00+00,2015,5,2D,Ward 2,Race,Black,Threats,907042,396108.25001034,138470.45314993,38.91409081,-77.04487371,,{0C51A94E-933F-4794-AE4C-BC00E9D7DF43},,,MPD,2024/02/16 21:02:52+00,2368,
-77.0249503246167,38.8983203661601,15068440,900 block of G St NW,2015/05/12 04:00:00+00,0500-0505,2015/05/12 04:00:00+00,2015,5,2D,Ward 2,Gender Identity/Expression,,ADW,810315,397835.86,136718.28,38.89831258,-77.02494803,,{9764EF5E-EF2A-4655-9C53-693370C5DAE0},,,MPD,2024/02/16 21:02:52+00,2369,
-76.9851796549856,38.9006559774222,15069014,Florida Ave NE and Holbrook St NE,2015/05/13 04:00:00+00,0004-0015,2015/05/13 04:00:00+00,2015,5,5D,Ward 6,Sexual Orientation,,Simple Assault,900029,401285.75999915,136977.35999655,38.90064819,-76.98517738,,{EBECBA0A-7EEB-4F38-A93F-F36302ECC177},,,MPD,2024/02/16 21:02:52+00,2370,
-77.0805613872703,38.95038119726,15075484,4600 block of Wisconsin Ave NW,2015/05/23 04:00:00+00,1707-1708,2015/05/23 04:00:00+00,2015,5,2D,Ward 3,Race,Black,Simple Assault,809308,393016.93,142500.26,38.9503734,-77.08055908,,{5B48DF54-98F8-4FB9-8C4C-F5B55C5C8A11},,,MPD,2024/02/16 21:02:52+00,2371,
-76.9751148317011,38.9172942137185,15084337,1800 block of New York Ave NE,2015/06/07 04:00:00+00,0243-0248,2015/06/07 04:00:00+00,2015,6,5D,Ward 5,Sexual Orientation,,Simple Assault,813064,402158.31,138824.53,38.91728642,-76.97511255,,{7B8FA3A3-8A0A-4FE0-BF5C-5B585070CBED},,,MPD,2024/02/16 21:02:52+00,2372,
-76.9528213834473,38.9066693873516,15087650,3700 block of Hayes St NE,2015/06/12 04:00:00+00,1520-1525,2015/06/12 04:00:00+00,2015,6,6D,Ward 7,Sexual Orientation,,Simple Assault,816724,404092.27,137645.85,38.9066616,-76.95281911,,{B4AAC110-C802-4123-BC03-0305BFB3A6F6},,,MPD,2024/02/16 21:02:52+00,2373,
-77.0416878769151,38.9047068424587,15088054,1100 block of 18th St NW,2015/06/13 04:00:00+00,0430-0435,2015/06/13 04:00:00+00,2015,6,2D,Ward 2,Sexual Orientation,,Robbery,801811,396384.27,137427.76,38.90469905,-77.04168558,,{7067478C-1FD5-4680-ABD0-8F65F1F7AF94},,,MPD,2024/02/16 21:02:52+00,2374,
-76.9908852990443,38.9002083058302,15092039,1100 block of H St NE,2015/06/19 04:00:00+00,1525-1530,2015/06/19 04:00:00+00,2015,6,1D,Ward 6,Sexual Orientation,,Simple Assault,811771,400790.84,136927.6,38.90020052,-76.99088302,,{5E96C46F-FE43-4F33-9810-3CB2F0D6C11B},,,MPD,2024/02/16 21:02:52+00,2375,
-76.9915318652882,38.8851056385171,15092142,11th St SE and South Carolina Ave SE,2015/06/19 04:00:00+00,2010-2018,2015/06/19 04:00:00+00,2015,6,1D,Ward 6,Race,White,Simple Assault,902042,400734.91001464,135251.07999494,38.88509785,-76.99152959,,{AF33BA5E-6269-4C7C-BCEE-B4240253281E},,,MPD,2024/02/16 21:02:52+00,2376,
-77.0311141612476,38.9275891443049,15106302,1300 block of Columbia Rd NW,2015/07/12 04:00:00+00,2100-2105,2015/07/13 04:00:00+00,2015,7,3D,Ward 1,Sexual Orientation,,Threats,806754,397302.28,139967.52,38.92758135,-77.03111187,,{2BE114AB-12CF-4CD3-AE06-6C8794717114},,,MPD,2024/02/16 21:02:52+00,2377,
-77.0280852802465,38.9186544661472,15106071,2100 block of 12th St NW,2015/07/13 04:00:00+00,0650-0652,2015/07/13 04:00:00+00,2015,7,3D,Ward 1,Race,Black,Simple Assault,809767,397564.61,138975.61,38.91864668,-77.02808299,,{0A13E2B4-C6E1-40F7-BEBB-274EB8128C29},,,MPD,2024/02/16 21:02:52+00,2378,
-76.948983065639,38.8926848982401,15108057,3900 block of Clay Pl NE,2015/07/16 04:00:00+00,1330-1347,2015/07/16 04:00:00+00,2015,7,6D,Ward 7,Sexual Orientation,,Robbery,802705,404426.05683406,136093.63925973,38.89267711,-76.9489808,,{610B2C95-59F6-497F-9DB3-997D9AEF61C9},,,MPD,2024/02/16 21:02:52+00,2379,
-77.0896455628346,38.9406526592728,15114333,45th St NW and Massachusetts Ave NW,2015/07/26 04:00:00+00,1010-1028,2015/07/26 04:00:00+00,2015,7,2D,Ward 3,Race,Black,Damage/Defacing/Destruction of Property,902290,392228.43000674,141421.04000067,38.94064487,-77.08964325,,{A63FA5BD-2A68-4CBE-BD3B-0BC7374EC21C},,,MPD,2024/02/16 21:02:52+00,2380,
-77.0151792177242,38.9019313341853,15126726,900 block of 3rd St NW,2015/08/15 04:00:00+00,1345-1355,2015/08/15 04:00:00+00,2015,8,1D,Ward 6,Gender Identity/Expression,,Simple Assault,800088,398683.53,137118.94,38.90192355,-77.01517693,,{A76DF65C-07B8-4049-97B5-180F45093A08},,,MPD,2024/02/16 21:02:52+00,2381,
-77.065131237347,38.9676174929026,15136567,3200 block of Patterson St NW,2015/08/20 04:00:00+00,0846-1838,2015/08/31 04:00:00+00,2015,8,2D,Ward 4,Religion,Jewish,Damage/Defacing/Destruction of Property,813826,394355.82,144412.58,38.96760969,-77.06512893,,{08568195-DDE7-4DD4-95B1-D9D292DD742E},,,MPD,2024/02/16 21:02:52+00,2382,
-77.0095003414123,38.8764673227545,15138024,Unit block of M St SW,2015/09/01 04:00:00+00,0630-0730,2015/09/02 04:00:00+00,2015,9,6D,Ward 6,Sexual Orientation,,Sexual Abuse,807215,399175.83,134292.17,38.87645954,-77.00949806,,{896A6D0B-F22F-42B7-B8D6-AD3E4B56C5BC},,,MPD,2024/02/16 21:02:52+00,2383,
-76.9476497764775,38.8966636721616,15138270,4000 block of Minnesota Ave NE,2015/09/03 04:00:00+00,1135-1200,2015/09/03 04:00:00+00,2015,9,6D,Ward 7,Sexual Orientation,,Threats,816435,404541.47,136535.38,38.89665588,-76.94764751,,{6BB4C516-8E35-4DD8-B95B-638FF62F3F17},,,MPD,2024/02/16 21:02:52+00,2384,
-76.9503361577178,38.8935520930915,15138950,3900 block of Minnesota Ave NE,2015/09/04 04:00:00+00,1300-1335,2015/09/04 04:00:00+00,2015,9,6D,Ward 7,Sexual Orientation,,Threats,810204,404308.62,136189.84,38.8935443,-76.95033389,,{B9F34FE6-A465-4FF7-B6E8-57CA9C64ACFA},,,MPD,2024/02/16 21:02:52+00,2385,
-77.0533127541176,38.9016203570895,15143700,900 block of 25th St NW,2015/09/12 04:00:00+00,2400-2403,2015/09/12 04:00:00+00,2015,9,2D,Ward 2,Sexual Orientation,,Simple Assault,806379,395375.75,137085.66,38.90161257,-77.05331045,,{33D89C45-7855-4FCB-BED2-7BC6E3FF1F95},,,MPD,2024/02/16 21:02:52+00,2386,
-77.0169191262798,38.9025278086911,15145195,400 block of K St NW,2015/09/14 04:00:00+00,1740-1745,2015/09/14 04:00:00+00,2015,9,1D,Ward 6,Race,White,Simple Assault,816529,398532.62,137185.18,38.90252002,-77.01691684,,{3022D0B2-E4EB-47B7-8132-91884BF2EE21},,,MPD,2024/02/16 21:02:52+00,2387,
-76.9792451891799,38.8778172150443,15145619,1900 block of M St SE,2015/09/15 04:00:00+00,1319-1530,2015/09/15 04:00:00+00,2015,9,1D,Ward 6,Race,Black,Robbery,805401,401801.11,134442.18,38.87780943,-76.97924291,,{C975B8E1-4712-4864-816D-7F08F9BF458A},,,MPD,2024/02/16 21:02:52+00,2388,
-77.0297276220374,38.9334748144786,15150759,3500 block of 13th St NW,2015/09/19 04:00:00+00,2330-1930,2015/09/23 04:00:00+00,2015,9,4D,Ward 1,Sexual Orientation,,Damage/Defacing/Destruction of Property,808594,397422.72,140620.84,38.93346702,-77.02972533,,{C77B2A9F-82B4-4D7D-A7B5-48D192912713},,,MPD,2024/02/16 21:02:52+00,2389,
-76.9889073573149,38.9064200261533,15152168,1100 block of Owens Pl NE,2015/09/25 04:00:00+00,2237-2242,2015/09/25 04:00:00+00,2015,9,5D,Ward 5,Sexual Orientation,,Threats,810927,400962.33,137617.17,38.90641224,-76.98890508,,{25B6DB27-E153-4752-83ED-C2A0C44A99E5},,,MPD,2024/02/16 21:02:52+00,2390,
-77.02837874142,38.9267472027232,15155750,1100 block of Harvard St NW,2015/10/01 04:00:00+00,2225-2230,2015/10/02 04:00:00+00,2015,10,3D,Ward 1,Sexual Orientation,,Robbery,810108,397539.44,139873.98,38.92673941,-77.02837645,,{BD47349E-AB3A-48BF-A784-773FD3E8A3DA},,,MPD,2024/02/16 21:02:52+00,2391,
-77.0111837958105,38.8983377196105,15159716,G St NW and Massachusetts Ave NW,2015/10/08 04:00:00+00,0500-1130,2015/10/08 04:00:00+00,2015,10,1D,Ward 6,Gender Identity/Expression,,Simple Assault,900107,399030.05001305,136719.97001231,38.89832993,-77.01118151,,{91F05520-0374-4F67-A775-E9A6D6609186},,,MPD,2024/02/16 21:02:52+00,2392,
-77.050115161311,38.902535031835,15159566,K St NW and Washington Cir NW,2015/10/08 04:00:00+00,1134-1230,2015/10/08 04:00:00+00,2015,10,2D,Ward 2,Religion,Muslim,ADW,912879,395653.17091999,137187.03908189,38.90252724,-77.05011286,,{A074E553-4D54-4ABA-8B8E-4A459DAE4B36},,,MPD,2024/02/16 21:02:52+00,2393,
-77.0448899970729,38.9111341485638,15162534,20th ST NW and Q St NW,2015/10/13 04:00:00+00,1215-1216,2015/10/13 04:00:00+00,2015,10,2D,Ward 2,Race,Unspecified,Damage/Defacing/Destruction of Property,900433,396106.87500234,138141.37500563,38.91112636,-77.0448877,,{E203D560-F978-46F9-AEBF-45D5730A6BB6},,,MPD,2024/02/16 21:02:52+00,2394,
-77.0253159206806,38.9170053257702,15164932,Vermont Ave NW and U St NW,2015/10/17 04:00:00+00,0305-0310,2015/10/17 04:00:00+00,2015,10,3D,Ward 1,Race,Black,Simple Assault,903436,397804.72133992,138792.47139023,38.91699754,-77.02531363,,{8310CDBD-BBB0-41AB-90CF-525EB1D5F816},,,MPD,2024/02/16 21:02:52+00,2395,
-77.0097166451117,38.824394485591,15167760,Unit block of Galveston Pl SW,2015/10/21 04:00:00+00,2100-2105,2015/10/21 04:00:00+00,2015,10,7D,Ward 8,Sexual Orientation,,Robbery,813921,399156.44543717,128511.71982869,38.82438671,-77.00971436,,{D747907C-DD8F-4F24-B1A9-F92ABE03756D},,,MPD,2024/02/16 21:02:52+00,2396,
-77.029622312295,38.8983206260792,15168831,13th St NW and G ST NW,2015/10/23 04:00:00+00,1640-1651,2015/10/23 04:00:00+00,2015,10,1D,Ward 2,Sexual Orientation,,Simple Assault,905734,397430.58428357,136718.43001231,38.89831284,-77.02962002,,{973170B1-144D-4D18-8403-A3E3E59459D9},,,MPD,2024/02/16 21:02:52+00,2397,
-77.0209190709617,38.8973505064376,15173860,600 block of F St NW,2015/11/01 04:00:00+00,2245-2400,2015/11/01 04:00:00+00,2015,11,1D,Ward 2,Gender Identity/Expression,,ADW,804562,398185.53,136610.53,38.89734272,-77.02091678,,{D6293EF4-959E-4D70-8375-5F9C4D203927},,,MPD,2024/02/16 21:02:52+00,2398,
-77.0325158075037,38.9037452308988,15177323,1400 block of L St NW,2015/11/06 05:00:00+00,1645-1655,2015/11/06 05:00:00+00,2015,11,2D,Ward 2,Race,Black,Threats,807754,397179.8,137320.69,38.90373744,-77.03251351,,{750CAE56-C2BC-4219-9F36-CA0A2A0C5FD7},,,MPD,2024/02/16 21:02:52+00,2399,
-77.0234441903088,38.9168761638835,15178501,800 block of Florida Ave NW,2015/11/08 05:00:00+00,1453-1500,2015/11/08 05:00:00+00,2015,11,3D,Ward 1,Race,White,Robbery,813652,397967.04,138778.09,38.91686837,-77.0234419,,{D28462BB-4771-40AA-BB3F-21C0133F8DA1},,,MPD,2024/02/16 21:02:52+00,2400,
-77.0212870589341,38.9236901151925,15180337,2400 block of 6th St NW,2015/11/11 05:00:00+00,1928-1929,2015/11/11 05:00:00+00,2015,11,3D,Ward 1,Race,Black,Threats,804466,398154.29,139534.45,38.92368232,-77.02128477,,{503CD246-A0E8-492D-99C1-25E9207617D6},,,MPD,2024/02/16 21:02:52+00,2401,
-77.0655765227116,38.9585780002958,15194549,5300 block of Nevada Ave NW,2015/12/06 05:00:00+00,1520-1645,2015/12/06 05:00:00+00,2015,12,2D,Ward 3,Race,Black,Threats,804004,394316.51,143409.14,38.9585702,-77.06557422,,{04FC5BCA-7759-4AE2-A6DD-27490AA6FD2F},,,MPD,2024/02/16 21:02:52+00,2402,
-76.9837861434821,38.9040767157779,15197337,1400 block of Staples St NE,2015/12/10 05:00:00+00,1214-1214,2015/12/10 05:00:00+00,2015,12,5D,Ward 5,Race,White,Threats,811530,401406.57,137357.11,38.90406893,-76.98378386,,{38224C57-FB70-4626-B8D1-7E37A779B5DF},,,MPD,2024/02/16 21:02:52+00,2403,
-77.0627655885721,38.9030148390458,15198456,1000 block of Wisconsin Ave NW,2015/12/13 05:00:00+00,0032-0126,2015/12/13 05:00:00+00,2015,12,2D,Ward 2,Ethnicity/National Origin,Arab/Middle Eastern,Threats,803006,394555.9,137240.98,38.90300705,-77.06276329,,{C967BD6E-3140-4B07-B980-6724ABE3E121},,,MPD,2024/02/16 21:02:52+00,2404,
-77.0176370262884,38.8778743896329,16000379,1100 block of 4th St SW,2016/01/01 05:00:00+00,0340-0350,2016/01/01 05:00:00+00,2016,1,1D,Ward 6,Sexual Orientation,,Simple Assault,815976,398469.82,134448.47,38.87786661,-77.01763474,,{09865B19-E35C-4431-97B0-3F1C5132EDDE},,,MPD,2024/02/16 21:02:52+00,2405,
-77.0620002480358,38.9051931978904,16006051,3100 block of M St NW,2016/01/12 05:00:00+00,2000,2016/01/12 05:00:00+00,2016,1,2D,Ward 2,Ethnicity/National Origin,Unspecified,Simple Assault,809180,394622.45,137482.75,38.90518541,-77.06199794,,{74EF17CA-CDC0-4610-9F05-3159395498AD},,,MPD,2024/02/16 21:02:52+00,2406,
-77.0473490578984,38.8960259401971,16010086,2100 block of E St NW,2016/01/16 05:00:00+00,0001-0100,2016/01/19 05:00:00+00,2016,1,2D,Ward 2,Ethnicity/National Origin,Asian,Theft,807732,395892.73,136464.35,38.89601815,-77.04734676,,{BD90E521-5D85-485D-95F9-2918FDC2432F},,,MPD,2024/02/16 21:02:52+00,2407,
-77.0209190709617,38.8973505064376,16010112,600 block of F St NW,2016/01/19 05:00:00+00,1930-1935,2016/01/19 05:00:00+00,2016,1,1D,Ward 2,Gender Identity/Expression,,Threats,804562,398185.53,136610.53,38.89734272,-77.02091678,,{2A8C88E7-A843-49DB-B9A4-0E055D83F32F},,,MPD,2024/02/16 21:02:52+00,2408,
-76.9458042989065,38.8865162470306,16013182,4300 block of C St SE,2016/01/19 05:00:00+00,0000,2016/01/21 05:00:00+00,2016,1,6D,Ward 7,Sexual Orientation,,Voyeurism,807273,404702.23,135409.03,38.88650846,-76.94580203,,{48835E0D-C7FF-4F83-BC6C-0EFEE366AC32},,,MPD,2024/02/16 21:02:52+00,2409,
-77.0209190709617,38.8973505064376,16013651,600 block of F St NW,2016/01/28 05:00:00+00,0730-0800,2016/01/28 05:00:00+00,2016,1,1D,Ward 2,Sexual Orientation,,Robbery,804562,398185.53,136610.53,38.89734272,-77.02091678,,{9ADC6BF1-7881-446D-B5C7-135A4FA5C670},,,MPD,2024/02/16 21:02:52+00,2410,
-76.9278671452539,38.8821593000572,16020096,5200 block of E St SE,2016/02/07 05:00:00+00,2230-2235,2016/02/09 05:00:00+00,2016,2,6D,Ward 7,Gender Identity/Expression,,Simple Assault,811984,406258.84358776,134926.45234664,38.88215151,-76.92786489,,{515E6F7B-0A6A-4BE5-9FDE-A56E8168A461},,,MPD,2024/02/16 21:02:52+00,2411,
-77.0441548951224,38.912612652565,16022306,1900 block of R St NW,2016/02/13 05:00:00+00,0340-0350,2016/02/13 05:00:00+00,2016,2,2D,Ward 2,Ethnicity/National Origin,Latino/Hispanic,Robbery,806127,396170.71,138305.47,38.91260486,-77.0441526,,{6535C5E4-F9C5-443C-90C2-3DBA9193C5B1},,,MPD,2024/02/16 21:02:52+00,2412,
-77.0425505796906,38.9126151395914,16028747,1800 block of R St NW,2016/02/25 05:00:00+00,1200-12205,2016/02/25 05:00:00+00,2016,2,2D,Ward 2,Religion,Jewish,Damage/Defacing/Destruction of Property,803082,396309.85,138305.68,38.91260735,-77.04254828,,{547FEF0A-66E7-473A-9D3F-A917524CA542},,,MPD,2024/02/16 21:02:52+00,2413,
-77.0199124958172,38.9003467736059,16029135,800 block of 6th St NW,2016/02/26 05:00:00+00,0819-0835,2016/02/26 05:00:00+00,2016,2,1D,Ward 2,Race,Black,Simple Assault,811531,398272.92,136943.12,38.90033899,-77.01991021,,{74639BDC-214C-4135-9F9D-169DA573D3CA},,,MPD,2024/02/16 21:02:52+00,2414,
-76.9973090746063,38.8967286997571,16035192,600 block of Acker Pl NE,2016/03/06 05:00:00+00,2200-2300,2016/03/07 05:00:00+00,2016,3,1D,Ward 6,Sexual Orientation,,ADW,806308,400233.63,136541.3,38.89672091,-76.99730679,,{B413CEF7-55BC-4016-8889-632CED154128},,,MPD,2024/02/16 21:02:52+00,2415,
-77.0365252794246,38.9100205237909,16036050,1500 block of 16th St NW,2016/03/08 05:00:00+00,1000,2016/03/09 05:00:00+00,2016,3,2D,Ward 2,Religion,Jewish,Damage/Defacing/Destruction of Property,806024,396832.3,138017.43,38.91001273,-77.03652298,,{EC36A7A8-EF72-416D-B21F-0C775701D7CB},,,MPD,2024/02/16 21:02:52+00,2416,
-76.9931424855264,38.9222243975062,16039876,900 block of Rhode Island Ave NE,2016/03/15 04:00:00+00,1708-1715,2016/03/15 04:00:00+00,2016,3,5D,Ward 5,Sexual Orientation,,Simple Assault,814008,400594.86,139371.55,38.9222166,-76.9931402,,{441CA647-562A-4AE6-865D-C465F8A1370E},,,MPD,2024/02/16 21:02:52+00,2417,
-76.94139642427,38.8897860194493,16041944,4100 block of East Capitol St NE,2016/03/19 04:00:00+00,2400-2404,2016/03/19 04:00:00+00,2016,3,6D,Ward 7,Ethnicity/National Origin,Latino/Hispanic,Robbery,807435,405084.42521867,135772.23634743,38.88977823,-76.94139416,,{08DF64C2-44BE-4958-948F-EB45BB9D41DE},,,MPD,2024/02/16 21:02:52+00,2418,
-77.0260575753501,38.9472157699133,16043698,900 block of Crittenden St NW,2016/03/22 04:00:00+00,0940,2016/03/22 04:00:00+00,2016,3,4D,Ward 4,Sexual Orientation,,Simple Assault,808804,397741.36,142146.11,38.94720797,-77.02605528,,{5214130E-200A-4366-983E-F0CC748176F2},,,MPD,2024/02/16 21:02:52+00,2419,
-77.0327321588336,38.9295246790098,16045961,3100 block of 14th St NW,2016/03/25 04:00:00+00,1740,2016/03/25 04:00:00+00,2016,3,3D,Ward 1,Gender Identity/Expression,,Simple Assault,800897,397162.06,140182.43,38.92951689,-77.03272986,,{065093BE-1FAC-4FD7-8066-A9F08199C1E0},,,MPD,2024/02/16 21:02:52+00,2420,
-77.078128978998,38.9451464231268,16047246,4300 block of Wisconsin Ave NW,2016/03/27 04:00:00+00,2020,2016/03/27 04:00:00+00,2016,3,2D,Ward 3,Ethnicity/National Origin,Latino/Hispanic,Threats,804419,393227.28,141918.97,38.94513863,-77.07812667,,{6FB1E652-4915-47DC-89D4-4134188A1174},,,MPD,2024/02/16 21:02:52+00,2421,
-76.9286995213325,38.89971486612,16051894,5000 block of Hayes St NE,2016/04/04 04:00:00+00,1745-1746,2016/04/04 04:00:00+00,2016,4,6D,Ward 7,Sexual Orientation,,Threats,815756,406185.1,136875.2,38.89970708,-76.92869726,,{5E04ABDD-8D8B-4D7C-9EE8-AC5FA9BC33EA},,,MPD,2024/02/16 21:02:52+00,2422,
-77.0209190709617,38.8973505064376,16053744,600 block of F St NW,2016/04/08 04:00:00+00,0100-0144,2016/04/08 04:00:00+00,2016,4,1D,Ward 2,Race,Black,Simple Assault,804562,398185.53,136610.53,38.89734272,-77.02091678,,{5E909803-40E7-4506-B725-9D13C1CCA6E9},,,MPD,2024/02/16 21:02:52+00,2423,
-76.9943300520729,38.9045237967499,16054512,800 block of Florida Ave NE,2016/04/09 04:00:00+00,0355,2016/04/09 04:00:00+00,2016,4,5D,Ward 6,Religion,Jewish,Damage/Defacing/Destruction of Property,802627,400492,137406.63,38.90451601,-76.99432777,,{5F331B5A-CF4D-4132-8BB6-646DB5900D65},,,MPD,2024/02/16 21:02:52+00,2424,
-77.0423677621623,38.9216308360012,16054987,2400 block of 18th St NW,2016/04/10 04:00:00+00,0100-0115,2016/04/10 04:00:00+00,2016,4,3D,Ward 1,Sexual Orientation,,Simple Assault,813850,396326.17,139306.49,38.92162305,-77.04236546,,{EB32CEB1-AF8B-4A45-B9AF-AC131DFFBE89},,,MPD,2024/02/16 21:02:52+00,2425,
-76.9943300520729,38.9045237967499,16058198,800 block of Florida Ave NE,2016/04/15 04:00:00+00,0914,2016/04/15 04:00:00+00,2016,4,5D,Ward 6,Religion,Jewish,Damage/Defacing/Destruction of Property,802627,400492,137406.63,38.90451601,-76.99432777,,{F992EEA2-BF11-479E-AA6D-A026AB7C13BC},,,MPD,2024/02/16 21:02:52+00,2426,
-77.0245857085619,38.9381561820186,16070040,3800 block of Georgia Ave NW,2016/04/20 04:00:00+00,1115,2016/05/04 04:00:00+00,2016,5,4D,Ward 4,Sexual Orientation,,Threats,806775,397868.68,141140.38,38.93814839,-77.02458342,,{8D1ED095-F780-40FD-A19F-3FC5418106E3},,,MPD,2024/02/16 21:02:52+00,2427,
-77.0215951554086,38.930033624852,16062767,600 block of Kenyon St NW,2016/04/21 04:00:00+00,2330-2400,2016/04/22 04:00:00+00,2016,4,4D,Ward 1,Religion,Muslim,Damage/Defacing/Destruction of Property,806833,398127.74,140238.64,38.93002583,-77.02159286,,{EB212E42-4EDE-46CC-B9E2-489E635C6D76},,,MPD,2024/02/16 21:02:52+00,2428,
-76.9881730419044,38.9030547939084,16063030,1200 block of Morse St NE,2016/04/22 04:00:00+00,1625-1628,2016/04/22 04:00:00+00,2016,4,5D,Ward 5,Race,Black,Simple Assault,803110,401026.07,137243.61,38.903047,-76.98817076,,{4E46AE67-1A93-4AF1-8478-30379861C28E},,,MPD,2024/02/16 21:02:52+00,2429,
-77.0138421101003,38.9427565015857,16064153,4200 block of 2nd St NW,2016/04/24 04:00:00+00,1041-1100,2016/04/24 04:00:00+00,2016,4,4D,Ward 4,Sexual Orientation,,ADW,811534,398800.2,141650.86,38.94274871,-77.01383982,,{FB9A48FB-A86D-4DCE-8274-9399F3DBF930},,,MPD,2024/02/16 21:02:52+00,2430,
-77.0270392419085,38.9231049162166,16066584,2500 block of 11th St NW,2016/04/28 04:00:00+00,0841-1100,2016/04/28 04:00:00+00,2016,4,3D,Ward 1,Sexual Orientation,,ADW,812308,397655.47,139469.62,38.92309712,-77.02703695,,{78952A8F-80BF-4414-8DA0-C908603BC4EB},,,MPD,2024/02/16 21:02:52+00,2431,
-77.0177945379322,38.9188802534266,16071328,2100 block of 4th St NW,2016/05/05 04:00:00+00,2236,2016/05/06 04:00:00+00,2016,5,3D,Ward 1,Sexual Orientation,,ADW,802661,398457.04,139000.45,38.91887246,-77.01779225,,{A6170587-365A-491D-82DC-FBD5A7DFB2C3},,,MPD,2024/02/16 21:02:52+00,2432,
-77.0344953901604,38.9675738820535,16071395,1400 block of Tuckerman St NW,2016/05/06 04:00:00+00,0042-0202,2016/05/06 04:00:00+00,2016,5,4D,Ward 4,Race,Black,Simple Assault,801150,397010.77,144406.29,38.96756608,-77.03449309,,{74F63E71-9D0F-408A-BC76-AE6540B1D6A7},,,MPD,2024/02/16 21:02:52+00,2433,
-77.0194175926522,38.9041751383278,16076517,500 block of L St NW,2016/05/14 04:00:00+00,0240-0244,2016/05/14 04:00:00+00,2016,5,5D,Ward 2,Gender Identity/Expression,,ADW,812058,398315.94,137368.09,38.90416735,-77.0194153,,{819330A1-FBBD-44CD-9EA9-5D314E98AB21},,,MPD,2024/02/16 21:02:52+00,2434,
-77.0244008704367,38.9369769444542,16078670,3700 block of Georgia Ave NW,2016/05/17 04:00:00+00,1720-1730,2016/05/17 04:00:00+00,2016,5,4D,Ward 4,Sexual Orientation,,Simple Assault,809816,397884.67,141009.47,38.93696915,-77.02439858,,{B438C008-2736-4275-89BE-C4D84976695C},,,MPD,2024/02/16 21:02:52+00,2435,
-77.0156803516559,38.899787008288,16079118,300 block of H St NW,2016/05/18 04:00:00+00,1153-1154,2016/05/18 04:00:00+00,2016,5,1D,Ward 6,Gender Identity/Expression,,Simple Assault,800047,398640.02,136880.91,38.89977922,-77.01567806,,{BC1DF1AA-3F17-4495-B727-F1BA7BD91068},,,MPD,2024/02/16 21:02:52+00,2436,
-77.0799396241634,38.9483648501849,16080636,4500 block of Wisconsin Ave NW,2016/05/20 04:00:00+00,1759-1800,2016/05/20 04:00:00+00,2016,5,2D,Ward 3,Homelessness,,Simple Assault,803221,393070.63,142276.38,38.94835706,-77.07993731,,{38968DA9-0AEE-4DC2-B7B1-B67EA8F3186B},,,MPD,2024/02/16 21:02:52+00,2437,
-77.0161378882842,38.9756335635566,16118491,200 block of Cedar St NW,2016/07/17 04:00:00+00,1930-1940,2016/07/17 04:00:00+00,2016,7,4D,Ward 4,Religion,Muslim,Threats,811878,398601.82,145300.55,38.97562576,-77.0161356,,{87F7FEDE-A51B-4C54-8462-9719A7D4DB80},,,MPD,2024/02/16 21:02:52+00,2438,
-77.0246367626532,38.9170041971694,16118067,900 block of U St NW,2016/07/17 04:00:00+00,0020-0021,2016/07/17 04:00:00+00,2016,7,3D,Ward 1,Race,Black,Simple Assault,813703,397863.62,138792.33,38.91699641,-77.02463447,,{AB148B4C-44E5-4DA5-A04C-99B1725AD6A6},,,MPD,2024/02/16 21:02:52+00,2439,
-77.0449050325721,38.9047070914982,16119683,1100 block of 20th St NW,2016/07/19 04:00:00+00,0000-1710,2016/07/23 04:00:00+00,2016,7,2D,Ward 2,Religion,Jewish,Damage/Defacing/Destruction of Property,802734,396105.22,137427.92,38.9046993,-77.04490273,,{0036C1DD-8666-4C16-B86E-D335F23A4288},,,MPD,2024/02/16 21:02:52+00,2440,
-77.0296259896042,38.9159371725967,16214281,1900 block of 13th St NW,2016/07/25 04:00:00+00,1830-1835,2016/07/26 04:00:00+00,2016,7,5D,Ward 1,Sexual Orientation,,ADW,805617,397430.9,138674.01,38.91592938,-77.0296237,,{464352F7-EDAC-495B-ABEE-F8BA92CA7C8F},,,MPD,2024/02/16 21:02:52+00,2441,
-76.9954666850829,38.8587587085665,16123724,2600 block of Martin Luther King Ave SE,2016/07/25 04:00:00+00,2233-2343,2016/07/26 04:00:00+00,2016,7,7D,Ward 8,Sexual Orientation,,Threats,806491,400393.66249432,132326.35020023,38.85875093,-76.99546441,,{43939CB0-1033-4D56-8DA4-245309B67B3E},,,MPD,2024/02/16 21:02:52+00,2442,
-77.058219820691,38.9176953005309,16128121,2650 block of Massachusetts Ave NW,2016/08/01 04:00:00+00,1902-2017,2016/08/01 04:00:00+00,2016,8,2D,Ward 2,Religion,Muslim,Threats,813802,394951.24,138870.37,38.91768751,-77.05821752,,{AA333000-E3CB-455B-8ADA-6AA01FAD0505},,,MPD,2024/02/16 21:02:52+00,2443,
-76.92796575858,38.8913401115674,16129021,100 block of Division Ave NE,2016/08/03 04:00:00+00,0110-0700,2016/08/03 04:00:00+00,2016,8,6D,Ward 7,Sexual Orientation,,Threats,801773,406249.48320375,135945.58626759,38.89133232,-76.9279635,,{FADE4ED8-8E23-4060-BC13-23D8F64B3863},,,MPD,2024/02/16 21:02:52+00,2444,
-76.9713563317619,38.8516665262436,16131000,2400 block of Alabama Ave SE,2016/08/06 04:00:00+00,0405,2016/08/06 04:00:00+00,2016,8,7D,Ward 8,Ethnicity/National Origin,Latino/Hispanic,Robbery,806892,402486.54336026,131539.4476395,38.85165875,-76.97135406,,{5BF31601-B7AE-4FE2-9E01-15FF9D940C39},,,MPD,2024/02/16 21:02:52+00,2445,
-77.0219191035581,38.8954708175118,16141289,400 block of 7th St NW,2016/08/21 04:00:00+00,1800-2059,2016/08/22 04:00:00+00,2016,8,1D,Ward 2,Religion,Jewish,Damage/Defacing/Destruction of Property,813752,398098.73,136401.89,38.89546303,-77.02191681,,{7FDED5F3-ECBB-4F6B-9DC4-C06DA9C7A5AE},,,MPD,2024/02/16 21:02:52+00,2446,
-77.0327256702028,38.9307153092958,16144770,3300 block of 14th St NW,2016/08/28 04:00:00+00,0411-0503,2016/08/28 04:00:00+00,2016,8,3D,Ward 1,Gender Identity/Expression,,Simple Assault,811139,397162.67,140314.6,38.93070752,-77.03272337,,{5E1E832E-8597-45F2-9613-D3A646518F15},,,MPD,2024/02/16 21:02:52+00,2447,
-77.0267778234154,38.9747216896803,16150940,6900 block of Georgia Ave NW,2016/09/06 04:00:00+00,2250-2310,2016/09/07 04:00:00+00,2016,9,4D,Ward 4,Ethnicity/National Origin,Latino/Hispanic,Simple Assault,800189,397679.82,145199.54,38.97471389,-77.02677553,,{5B27FE53-5E90-470C-8132-5BFAA6ED8885},,,MPD,2024/02/16 21:02:52+00,2448,
-76.9922193627177,38.8362490733255,16155806,900 block of Blakney Lane SE,2016/09/14 04:00:00+00,0045,2016/09/14 04:00:00+00,2016,9,7D,Ward 8,Gender Identity/Expression,,Threats,804707,400675.72348658,129827.64216591,38.8362413,-76.99221709,,{7A4B5812-D3DC-4CA0-9F82-B9791BA98209},,,MPD,2024/02/16 21:02:52+00,2449,
-77.0005781841742,38.8881473537065,16157283,100 block of 4th St SE,2016/09/16 04:00:00+00,1715,2016/09/16 04:00:00+00,2016,9,1D,Ward 6,Disability,,Simple Assault,800642,399950.03580591,135588.69999526,38.88813957,-77.0005759,,{80904EAA-A4A6-473B-92EF-BDA798CC8CE9},,,MPD,2024/02/16 21:02:52+00,2450,
-77.0169444863967,38.9141623552518,16162028,400 block of Florida Ave NW,2016/09/23 04:00:00+00,2151-2215,2016/09/23 04:00:00+00,2016,9,3D,Ward 1,Race,White,Simple Assault,807218,398530.66,138476.71,38.91415456,-77.0169422,,{D9047420-9E9E-4B41-BB8C-751B34936D81},,,MPD,2024/02/16 21:02:52+00,2451,
-77.0332528296919,38.9118755981844,16168163,1400 block of Corcoran St NW,2016/10/01 04:00:00+00,1300-1720,2016/10/03 04:00:00+00,2016,10,3D,Ward 2,Race,Black,Damage/Defacing/Destruction of Property,806220,397116.2,138223.25,38.91186781,-77.03325054,,{4A0E82FA-9F49-45F0-A834-CAC96D13BDD2},,,MPD,2024/02/16 21:02:52+00,2452,
-76.9819190814707,38.9007508267863,16169200,1500 block of Maryland Ave NE,2016/10/05 04:00:00+00,1145-1238,2016/10/05 04:00:00+00,2016,10,5D,Ward 5,Gender Identity/Expression,,Simple Assault,800273,401568.59,136987.94,38.90074304,-76.9819168,,{72910854-2A31-4131-BE5E-89AAF901D8A0},,,MPD,2024/02/16 21:02:52+00,2453,
-76.9815249248386,38.8571376183209,16170819,1600 block of Morris Rd SE,2016/10/07 04:00:00+00,2030-2036,2016/10/08 04:00:00+00,2016,10,7D,Ward 8,Ethnicity/National Origin,Black/African,Threats,808414,401603.76,132146.55,38.85712984,-76.98152265,,{EDC7440C-6556-46A3-B833-5864B0DADC27},,,MPD,2024/02/16 21:02:52+00,2454,
-77.0327318032381,38.9382966057694,16175768,3800 block of 14th St NW,2016/10/16 04:00:00+00,0240-0320,2016/10/16 04:00:00+00,2016,10,1D,Ward 4,Gender Identity/Expression,,Simple Assault,803759,397162.44,141156.19,38.93828881,-77.03272951,,{7E4F3E1E-9D07-4C63-9264-1092D0017E76},,,MPD,2024/02/16 21:02:52+00,2455,
-76.9879879269011,38.841990369576,16176048,1300 block of Congress St SE,2016/10/16 04:00:00+00,1542-1642,2016/10/16 04:00:00+00,2016,10,7D,Ward 8,Gender Identity/Expression,,ADW,804649,401043.01871892,130465.0051745,38.84198259,-76.98798565,,{CFF24623-7B37-48C9-98C3-CE240829C69D},,,MPD,2024/02/16 21:02:52+00,2456,
-76.9961698087951,38.9007740532421,16177646,800 block of 7th St NE,2016/10/19 04:00:00+00,0522-0525,2016/10/19 04:00:00+00,2016,10,1D,Ward 6,Gender Identity/Expression,,Simple Assault,806285,400332.44,136990.37,38.90076626,-76.99616753,,{874248AE-E370-4D74-B3F9-C88E79B88004},,,MPD,2024/02/16 21:02:52+00,2457,
-77.0471479755882,38.9141017327476,16181036,2100 block of S St NW,2016/10/22 04:00:00+00,0300-1057,2016/10/24 04:00:00+00,2016,10,2D,Ward 2,Sexual Orientation,,Threats,805642,395911.21,138470.9,38.91409394,-77.04714568,,{80AB9789-7796-42C9-9691-D46B874A2724},,,MPD,2024/02/16 21:02:52+00,2458,
-77.0715570778416,38.9203122013849,16179656,2300 block of Wisconsin Ave NW,2016/10/22 04:00:00+00,0313,2016/10/22 04:00:00+00,2016,10,2D,Ward 3,Sexual Orientation,,Simple Assault,814763,393794.83,139161.69,38.92030441,-77.07155477,,{946DE779-B385-4FDD-9333-D1C8F634D074},,,MPD,2024/02/16 21:02:52+00,2459,
-77.0083902161693,38.8972117280431,16180630,Unit block of Massachusetts Ave NE,2016/10/23 04:00:00+00,1714-1821,2016/10/23 04:00:00+00,2016,10,1D,Ward 6,Sexual Orientation,,ADW,800876,399272.37,136594.95,38.89720394,-77.00838793,,{02420C79-BFE8-4F41-91EB-2F1411EEDD3A},,,MPD,2024/02/16 21:02:52+00,2460,
-77.0203194081405,38.9156017095009,16184816,600 block of Florida Ave NW,2016/10/30 04:00:00+00,0151-0345,2016/10/30 04:00:00+00,2016,10,3D,Ward 2,Sexual Orientation,,Simple Assault,810091,398238,138636.55,38.91559392,-77.02031712,,{923A584D-1B0E-4671-A227-10E8BA4B9CA7},,,MPD,2024/02/16 21:02:52+00,2461,
-77.0242899020094,38.9223917906116,16188074,2500 block of 9th St NW,2016/11/04 04:00:00+00,1745,2016/11/04 04:00:00+00,2016,11,3D,Ward 1,Ethnicity/National Origin,Latino/Hispanic,Threats,807180,397893.86,139390.39,38.922384,-77.02428761,,{DA5DCFBF-4742-4752-8EDE-437C5D9F5A98},,,MPD,2024/02/16 21:02:52+00,2462,
-77.0161672833885,38.9103889616676,16188276,1500 block of 4th St NW,2016/11/04 04:00:00+00,1551,2016/11/04 04:00:00+00,2016,11,3D,Ward 5,Gender Identity/Expression,,ADW,814162,398597.99,138057.82,38.91038117,-77.01616499,,{B0BD8F01-047C-4935-89A2-96C9364B6E3F},,,MPD,2024/02/16 21:02:52+00,2463,
-77.0809648115025,38.906705807848,16189410,1400 block of Foxhall Rd NW,2016/11/05 04:00:00+00,2000-1059,2016/11/06 04:00:00+00,2016,11,2D,Ward 3,Political Affiliation,,Damage/Defacing/Destruction of Property,813923,392977.66,137651.95,38.90669802,-77.0809625,,{09CDAE33-7628-4FB4-AF80-D8B430876B2C},,,MPD,2024/02/16 21:02:52+00,2464,
-77.0244008704367,38.9369769444542,16190338,3700 block of Georgia Ave NW,2016/11/07 05:00:00+00,2040,2016/11/07 05:00:00+00,2016,11,4D,Ward 4,Gender Identity/Expression,,Simple Assault,809816,397884.67,141009.47,38.93696915,-77.02439858,,{969B6E60-4F9D-43F5-93FF-E86EBD8A512D},,,MPD,2024/02/16 21:02:52+00,2465,
-77.0758380831811,38.928282137888,16193410,2900 block of Bellevue Ter NW,2016/11/12 05:00:00+00,0000-1030,2016/11/13 05:00:00+00,2016,11,2D,Ward 3,Religion,Jewish,Damage/Defacing/Destruction of Property,807284,393424.32,140046.72,38.92827435,-77.07583577,,{25FFC6FD-504F-4654-8527-42460075311F},,,MPD,2024/02/16 21:02:52+00,2466,
-77.0709786721488,38.9076973647099,16195957,3700 block of O St NW,2016/11/13 05:00:00+00,0105,2016/11/17 05:00:00+00,2016,11,2D,Ward 2,Religion,Muslim,Simple Assault,810249,393843.9,137761.3,38.90768958,-77.07097637,,{6B710425-22EC-475D-B34A-577C2EC82704},,,MPD,2024/02/16 21:02:52+00,2467,
-77.0441753799882,38.9056622550916,16196212,1900 block of M St NW,2016/11/18 05:00:00+00,0215,2016/11/18 05:00:00+00,2016,11,2D,Ward 2,Political Affiliation,,ADW,813384,396168.56,137533.92,38.90565447,-77.04417308,,{17E174DD-A6CD-435D-A491-52D78D2E3C66},,,MPD,2024/02/16 21:02:52+00,2468,
-77.0224194331647,38.9164967538434,16196907,700 block of Florida Ave NW,2016/11/19 05:00:00+00,0409,2016/11/19 05:00:00+00,2016,11,3D,Ward 1,Sexual Orientation,,ADW,800541,398055.9,138735.95,38.91648896,-77.02241714,,{343CD479-18F7-4872-9323-581F285EAAC5},,,MPD,2024/02/16 21:02:52+00,2469,
-77.0245857085619,38.9381561820186,16197526,3800 block of Georgia Ave NW,2016/11/20 05:00:00+00,0545-0630,2016/11/20 05:00:00+00,2016,11,4D,Ward 4,Sexual Orientation,,Simple Assault,806775,397868.68,141140.38,38.93814839,-77.02458342,,{2B9FA496-FC88-4DEF-8491-F79E694438ED},,,MPD,2024/02/16 21:02:52+00,2470,
-76.9237294658163,38.8949406000985,16202012,5300 block of Dix St NE,2016/11/28 05:00:00+00,1910,2016/11/28 05:00:00+00,2016,11,6D,Ward 7,Sexual Orientation,,Simple Assault,806027,406616.66608409,136345.56722796,38.89493281,-76.92372721,,{D8156E02-8917-4D66-8604-8EA40DE64F49},,,MPD,2024/02/16 21:02:52+00,2471,
-76.9920320663602,38.8418265303205,16208137,3300 block of 10th Pl SE,2016/12/09 05:00:00+00,1130,2016/12/09 05:00:00+00,2016,12,7D,Ward 8,Sexual Orientation,,Simple Assault,800977,400691.9308146,130446.77947849,38.84181875,-76.99202979,,{020401DE-6BFB-4092-A6FB-32641CDB37B5},,,MPD,2024/02/16 21:02:52+00,2472,
-77.0514068694978,38.9062596134747,16212622,1200 block of 24th St NW,2016/12/17 05:00:00+00,0152,2016/12/17 05:00:00+00,2016,12,2D,Ward 2,Religion,Christian,Simple Assault,808655,395541.36,137600.56,38.90625183,-77.05140457,,{98F85100-5891-476A-B8C5-E043116FDF0B},,,MPD,2024/02/16 21:02:52+00,2473,
-77.0194175926522,38.9041751383278,16213056,540 block of L St NW,2016/12/17 05:00:00+00,2041,2016/12/17 05:00:00+00,2016,12,1D,Ward 2,Sexual Orientation,,Threats,812058,398315.94,137368.09,38.90416735,-77.0194153,,{3D36FD4A-4507-40FC-B0F6-4BEE91EB1316},,,MPD,2024/02/16 21:02:52+00,2474,
-77.0005758969634,38.839436142412,17003228,3400 block of 4th ST SE,2017/01/05 05:00:00+00,1533,2017/01/06 05:00:00+00,2017,1,7D,Ward 8,Sexual Orientation,,Threats,815806,399950.2,130181.4,38.83942837,-77.00057362,,{A2BD675C-F024-41D8-BBEB-065EE009A8DC},,,MPD,2024/02/16 21:02:52+00,2475,
-77.021918846948,38.8991374923213,17008389,700 block of 7th St NW,2017/01/15 05:00:00+00,1812,2017/01/15 05:00:00+00,2017,1,1D,Ward 2,Political Affiliation,,Simple Assault,803289,398098.85,136808.92,38.89912971,-77.02191656,,{B86854B4-9AD6-4E74-8C8F-639CF962F675},,,MPD,2024/02/16 21:02:52+00,2476,
-77.0743129035034,38.9125968230755,17009376,3800 block of Reservoir Rd NW,2017/01/17 05:00:00+00,1340,2017/01/17 05:00:00+00,2017,1,2D,Ward 2,Race,Black,ADW,816538,393555.15,138305.41,38.91258904,-77.0743106,,{84B6C9A5-8029-4B2E-8BAF-DB1CE6C48433},,,MPD,2024/02/16 21:02:52+00,2477,
-76.9802857105738,38.869486284557,17014388,1700 block of R St SE,2017/01/26 05:00:00+00,0703,2017/01/26 05:00:00+00,2017,1,6D,Ward 8,Gender Identity/Expression,,ADW,802238,401711.02278354,133517.36444134,38.8694785,-76.98028344,,{3768F56D-720B-41B3-B91C-F46B826219E9},,,MPD,2024/02/16 21:02:52+00,2478,
-77.0400881672321,38.9084852342745,17014929,1700 block of Massachusetts Ave NW,2017/01/27 05:00:00+00,0300,2017/01/27 05:00:00+00,2017,1,2D,Ward 2,Religion,Jewish,Damage/Defacing/Destruction of Property,811901,396523.21,137847.13,38.90847745,-77.04008587,,{D4FD42D0-D661-4177-A476-64462CD494E6},,,MPD,2024/02/16 21:02:52+00,2479,
-77.040093352533,38.907249287097,17016247,1700 block of N St NW,2017/01/29 05:00:00+00,0300,2017/01/29 05:00:00+00,2017,1,2D,Ward 2,Political Affiliation,,ADW,804804,396522.7,137709.93,38.9072415,-77.04009106,,{F3D02631-E0B0-4361-AE36-BEDA9DF5FFCB},,,MPD,2024/02/16 21:02:52+00,2480,
-77.0193776326794,38.894581690397,17029252,500 block of Indiana Ave NW,2017/02/03 05:00:00+00,1100,2017/02/20 05:00:00+00,2017,2,1D,Ward 2,Sexual Orientation,,Simple Assault,800013,398319.18,136303.14,38.8945739,-77.01937534,,{9B2B017B-1B63-4956-BA05-5C26E4AACA1A},,,MPD,2024/02/16 21:02:52+00,2481,
-77.0306336752656,38.907911021097,17020132,1300 block of Vermont Ave NW,2017/02/04 05:00:00+00,1900,2017/02/04 05:00:00+00,2017,2,3D,Ward 2,Sexual Orientation,,ADW,810205,397343.21,137783.07,38.90790323,-77.03063138,,{FCD296B0-B3AF-44C7-8157-7FBD8A46E612},,,MPD,2024/02/16 21:02:52+00,2482,
-77.0731902018467,38.9268633946351,17021479,2800 block of Wisconsin Ave NW,2017/02/06 05:00:00+00,1700,2017/02/07 05:00:00+00,2017,2,2D,Ward 3,Religion,Jewish,Threats,812996,393653.79,139889.04,38.9268556,-77.07318789,,{233B1E2C-05AE-4754-9E9B-40852F2247DB},,,MPD,2024/02/16 21:02:52+00,2483,
-77.0423677621623,38.9216308360012,17027193,2400 block of 18th St NW,2017/02/17 05:00:00+00,0225,2017/02/17 05:00:00+00,2017,2,3D,Ward 1,Race,Black,Simple Assault,813850,396326.17,139306.49,38.92162305,-77.04236546,,{DCFFE51F-7CB9-4D6B-976F-922C2EF98D39},,,MPD,2024/02/16 21:02:52+00,2484,
-77.0429519042563,38.9224992955308,17027720,1800 block of Columbia Rd NW,2017/02/18 05:00:00+00,0025,2017/02/18 05:00:00+00,2017,2,3D,Ward 1,Ethnicity/National Origin,Black/African,Threats,807751,396275.56,139402.92,38.9224915,-77.04294961,,{A70DBFA7-4564-4165-B4E2-EBC7C8ED4B8A},,,MPD,2024/02/16 21:02:52+00,2485,
-77.0731902018467,38.9268633946351,17029569,2800 block of Wisconsin Ave NW,2017/02/18 05:00:00+00,0948,2017/02/21 05:00:00+00,2017,2,2D,Ward 3,Religion,Jewish,Threats,812996,393653.79,139889.04,38.9268556,-77.07318789,,{E83B7472-4CE0-4CE2-B1DA-0037BF2A9E8A},,,MPD,2024/02/16 21:02:52+00,2486,
-76.9984525859422,38.8397235933409,17029776,3300 block of 6th St SE,2017/02/21 05:00:00+00,1500,2017/02/21 05:00:00+00,2017,2,7D,Ward 8,Sexual Orientation,,Damage/Defacing/Destruction of Property,809813,400134.54,130213.31,38.83971582,-76.99845031,,{E3C89D80-C0D0-4027-A3FA-1A27A4C209C4},,,MPD,2024/02/16 21:02:52+00,2487,
-77.0336468782466,38.8978374986173,17031021,600 block of 15th St NW,2017/02/22 05:00:00+00,1820,2017/02/23 05:00:00+00,2017,2,2D,Ward 2,Sexual Orientation,,Simple Assault,803528,397081.45,136664.92,38.89782971,-77.03364458,,{9D49B90B-52B0-428B-9354-1DCBB456E32C},,,MPD,2024/02/16 21:02:52+00,2488,
-77.0384868410645,38.9115051897783,12003845,1600 block of 17th St NW ,2012/01/08 05:00:00+00,1500-1505,2012/01/08 05:00:00+00,2012,1,3D,Ward 2,Sexual Orientation,,Threats,808622,396662.24,138182.31,38.9114974,-77.03848454,,{BD9467E0-5231-438F-A158-8D82D406D555},,,MPD,2024/02/16 21:02:52+00,2489,
-77.0152104036257,38.8784219909277,12005834,3rd St SW and K St SW,2012/01/12 05:00:00+00,1722,2012/01/12 05:00:00+00,2012,1,1D,Ward 6,Sexual Orientation,,Robbery,903177,398680.39001273,134509.21999426,38.87841421,-77.01520812,,{E3C41FC8-5687-423B-9FE9-BAB4CB00D275},,,MPD,2024/02/16 21:02:52+00,2490,
-77.0267611748033,38.9323292730779,12006285,Park Rd NW and Sherman Ave NW,2012/01/13 05:00:00+00,1255-1258,2012/01/13 05:00:00+00,2012,1,4D,Ward 1,Race,Unspecified,Simple Assault,902294,397679.8830038,140493.59539181,38.93232148,-77.02675888,,{2582A2EC-390E-4F1B-9599-7CC37BE4C864},,,MPD,2024/02/16 21:02:52+00,2491,
-77.0416584150421,38.9167880778494,12006742,18th St NW and Florida Ave NW,2012/01/14 05:00:00+00,0431-0433,2012/01/14 05:00:00+00,2012,1,3D,Ward 2,Ethnicity/National Origin,Arab/Middle Eastern,Simple Assault,904132,396387.4374986,138768.87500621,38.91678029,-77.04165612,,{D1473A74-2BAA-4D98-B548-89EFE4B9CC8A},,,MPD,2024/02/16 21:02:52+00,2492,
-77.020914492172,38.8998196995033,12010912,600 block of H St NW,2012/01/22 05:00:00+00,1930,2012/01/22 05:00:00+00,2012,1,1D,Ward 2,Race,Asian,Threats,807858,398185.99,136884.63,38.89981191,-77.0209122,,{FC38EEF0-ACFF-4E93-B145-E3B9D4CB554A},,,MPD,2024/02/16 21:02:52+00,2493,
-76.9867914547935,38.8450846851627,12010626,1300 block of Alabama Ave SE,2012/01/22 05:00:00+00,0145,2012/01/22 05:00:00+00,2012,1,7D,Ward 8,Sexual Orientation,,ADW,812079,401146.84,130808.51,38.84507691,-76.98678918,,{A0B3E91E-6A95-4C66-BD51-B94DDD2BBF21},,,MPD,2024/02/16 21:02:52+00,2494,
-77.0020436918123,38.8837628672972,12019568,400 block of 3rd St SE,2012/02/08 05:00:00+00,1200-1230,2012/02/09 05:00:00+00,2012,2,1D,Ward 6,Race,Black,Threats,803721,399822.88,135101.99,38.88375508,-77.00204141,,{5E387C51-4267-4D81-BC83-58E1029ABF5D},,,MPD,2024/02/16 21:02:52+00,2495,
-77.0328097019695,38.887759980459,12021883,1400 block of Independence Ave SW,2012/02/14 05:00:00+00,0900-0915,2012/02/14 05:00:00+00,2012,2,1D,Ward 2,Ethnicity/National Origin,Unspecified,Simple Assault,802956,397153.67,135546.21,38.8877522,-77.03280741,,{4972283A-CF0A-4F6A-99C4-FAD4859394BF},,,MPD,2024/02/16 21:02:52+00,2496,
-77.0224863860411,38.9419628791176,12026003,700 block of Upshur St NW,2012/02/23 05:00:00+00,0150-0153,2012/02/23 05:00:00+00,2012,2,4D,Ward 4,Sexual Orientation,,Robbery,800289,398050.79,141562.91,38.94195508,-77.02248409,,{8951A3BC-74B6-4272-9FC4-BBBA535C8F0A},,,MPD,2024/02/16 21:02:52+00,2497,
-77.0270556279819,38.8875736303972,12038547,1000 block of Independence Ave SW,2012/03/08 05:00:00+00,1655-1730,2012/03/20 04:00:00+00,2012,3,1D,Ward 6,Sexual Orientation,,Threats,813117,397652.88,135525.36,38.88756585,-77.02705334,,{331452BB-5FDE-4DDC-BF88-E50A56C5B3CB},,,MPD,2024/02/16 21:02:52+00,2498,
-77.0327321588336,38.9295246790098,12034069,3100 block of 14th St NW,2012/03/11 05:00:00+00,0636-0700,2012/03/11 05:00:00+00,2012,3,3D,Ward 1,Sexual Orientation,,ADW,800897,397162.06,140182.43,38.92951689,-77.03272986,,{009398BF-0BD1-40E3-BB9D-18CEB9DDD63E},,,MPD,2024/02/16 21:02:52+00,2499,
-77.0232311437383,38.929048522448,12034811,Irving St NW and Georgia Ave NW,2012/03/12 04:00:00+00,2135-2140,2012/03/12 04:00:00+00,2012,3,3D,Ward 1,Sexual Orientation,,Robbery,902773,397985.85999608,140129.31999947,38.92904073,-77.02322885,,{68ECFF9B-9160-401C-87B7-EF5C047EA840},,,MPD,2024/02/16 21:02:52+00,2500,
-76.9476497764775,38.8966636721616,12036881,4000 block of Minnesota Ave NE,2012/03/16 04:00:00+00,2315,2012/03/17 04:00:00+00,2012,3,6D,Ward 7,Sexual Orientation,,Robbery,816435,404541.47,136535.38,38.89665588,-76.94764751,,{399CFA34-BFA1-4C86-ADEC-37943E040C54},,,MPD,2024/02/16 21:02:52+00,2501,
-77.0239471093064,38.9173845822639,12040991,2000 block of 9th St NW,2012/03/25 04:00:00+00,0257-0258,2012/03/25 04:00:00+00,2012,3,3D,Ward 1,Sexual Orientation,,Simple Assault,805059,397923.44,138834.54,38.91737679,-77.02394482,,{575FD0AC-8A09-4282-93A3-CCF93A96D7B3},,,MPD,2024/02/16 21:02:52+00,2502,
-76.9935120535432,38.8443655817496,12042017,3000 block of 9th St SE,2012/03/27 04:00:00+00,1400-1435,2012/03/27 04:00:00+00,2012,3,7D,Ward 8,Sexual Orientation,,Simple Assault,814370,400563.42627048,130728.62159075,38.8443578,-76.99350978,,{2337EA3F-7EEF-4EC9-B530-C9289BFC503D},,,MPD,2024/02/16 21:02:52+00,2503,
-77.0575805142022,38.9050971786791,12042817,2800 block of Pennsylvania Ave NW,2012/03/29 04:00:00+00,0150,2012/03/29 04:00:00+00,2012,3,2D,Ward 2,Ethnicity/National Origin,Arab/Middle Eastern,Simple Assault,807663,395005.8,137471.84,38.90508939,-77.05757821,,{A833ED41-1693-4B0C-AD2D-DAED109515DB},,,MPD,2024/02/16 21:02:52+00,2504,
-77.0319555858751,38.914470001592,12059617,1800 block of 14th St NW,2012/04/04 04:00:00+00,0200,2012/05/02 04:00:00+00,2012,5,3D,Ward 2,Race,Black,Simple Assault,810471,397228.81,138511.21,38.91446221,-77.03195329,,{0839BEF3-29DD-46BE-873E-EFB4D78BBC43},,,MPD,2024/02/16 21:02:52+00,2505,
-77.0301986074395,38.8955141023358,12052642,1300 block of Pennsylvania Ave NW,2012/04/06 04:00:00+00,0832-1241,2012/04/18 04:00:00+00,2012,4,2D,Ward 2,Race,Black,Threats,800757,397380.49,136406.9,38.89550632,-77.03019631,,{E7E7C723-8964-4D74-A4EC-8A67FBE3A82C},,,MPD,2024/02/16 21:02:52+00,2506,
-76.9750662242182,38.8439225197668,12050382,1900 block of Mississippi Ave SE,2012/04/13 04:00:00+00,1833-1845,2012/04/13 04:00:00+00,2012,4,7D,Ward 8,Sexual Orientation,,Simple Assault,814208,402164.74979196,130679.7141667,38.84391474,-76.97506395,,{66AF726E-99B9-445C-B654-849C6DFB3AD4},,,MPD,2024/02/16 21:02:52+00,2507,
-77.0348893554683,38.9355600710027,12052410,1500 block of Ogden St NW,2012/04/17 04:00:00+00,2140,2012/04/17 04:00:00+00,2012,4,4D,Ward 1,Gender Identity/Expression,,Threats,803978,396975.27,140852.48,38.93555228,-77.03488706,,{53CA0989-20A0-444E-9525-F1C43CBA1EE2},,,MPD,2024/02/16 21:02:52+00,2508,
-77.048798809564,38.9096422390305,12058115,22nd St NW and P St NW,2012/04/29 04:00:00+00,0230,2012/04/29 04:00:00+00,2012,4,2D,Ward 2,Race,Unspecified,Damage/Defacing/Destruction of Property,906688,395767.77397803,137975.93481347,38.90963445,-77.04879651,,{41F4C2B0-4D30-41FA-9AEC-D2299F340A56},,,MPD,2024/02/16 21:02:52+00,2509,
-77.0332436347909,38.9181221614116,12060407,1400 block of V St NW,2012/05/03 04:00:00+00,2149-2248,2012/05/04 04:00:00+00,2012,5,5D,Ward 1,Sexual Orientation,,Threats,811679,397117.25,138916.67,38.91811437,-77.03324134,,{5EFE5DE7-BFCA-49DF-964C-CB912B94D68A},,,MPD,2024/02/16 21:02:52+00,2510,
-77.0226441797408,38.9354112950727,12062696,700 block of Princeton Pl NW,2012/05/08 04:00:00+00,0830,2012/05/08 04:00:00+00,2012,5,4D,Ward 1,Race,Black,Damage/Defacing/Destruction of Property,806742,398036.93,140835.63,38.9354035,-77.02264189,,{470B25E8-03E2-4FFB-87CD-6FDCDC34C9D9},,,MPD,2024/02/16 21:02:52+00,2511,
-76.9961696083577,38.9002126522711,12066780,7th St NE and H St NE,2012/05/16 04:00:00+00,0130,2012/05/16 04:00:00+00,2012,5,1D,Ward 6,Gender Identity/Expression,,Simple Assault,901151,400332.45999826,136928.0500125,38.90020486,-76.99616733,,{A628D2FB-2D53-4B35-AFDE-B06550F0DD0B},,,MPD,2024/02/16 21:02:52+00,2512,
-77.0416886663738,38.9056630454988,12069176,18th St NW and M St NW,2012/05/20 04:00:00+00,1000,2012/05/20 04:00:00+00,2012,5,2D,Ward 2,Sexual Orientation,,Simple Assault,906209,396384.2500106,137533.90626906,38.90565526,-77.04168637,,{C7B2AC25-3B61-47CC-B663-4619630F7E1D},,,MPD,2024/02/16 21:02:52+00,2513,
-77.0144522349979,38.9025247167714,12077382,200 block of K St NW,2012/06/05 04:00:00+00,0312-0345,2012/06/05 04:00:00+00,2012,6,1D,Ward 6,Race,Unspecified,Simple Assault,810843,398746.6,137184.8,38.90251693,-77.01444995,,{47FC6BD7-DA7D-4637-AA6D-CEFA7A23BC51},,,MPD,2024/02/16 21:02:52+00,2514,
-77.0375014904977,38.9126167791993,12079041,1600 block of R St NW,2012/06/08 04:00:00+00,0220-0223,2012/06/08 04:00:00+00,2012,6,3D,Ward 2,Sexual Orientation,,Simple Assault,812936,396747.75,138305.67,38.91260899,-77.03749919,,{2D2C779B-BF8D-431D-9778-540B65464D8C},,,MPD,2024/02/16 21:02:52+00,2515,
-77.0175669460355,38.8921171639039,12082150,4th St NW and Pennsylvania Ave NW,2012/06/13 04:00:00+00,1937-1938,2012/06/13 04:00:00+00,2012,6,1D,Ward 6,Race,Unspecified,Threats,906301,398476.20518054,136029.52636367,38.89210938,-77.01756466,,{5B783D0D-57CB-463D-924B-5BC9A2C8B7DE},,,MPD,2024/02/16 21:02:52+00,2516,
-77.0373528938476,38.9287411016649,12086552,Irving St NW and Mount Pleasant St NW,2012/06/22 04:00:00+00,0430,2012/06/22 04:00:00+00,2012,6,4D,Ward 1,Sexual Orientation,,Robbery,905760,396761.37001095,140095.59999944,38.92873331,-77.0373506,,{6A68E943-AD4B-4DF7-8307-6DF02CDECE1A},,,MPD,2024/02/16 21:02:52+00,2517,
-77.0319540542782,38.9092503887715,12087498,1400 block of 14th St NW,2012/06/23 04:00:00+00,2220-2225,2012/06/23 04:00:00+00,2012,6,3D,Ward 2,Sexual Orientation,,Simple Assault,811823,397228.74,137931.79,38.9092426,-77.03195176,,{64330705-DFCE-4EAB-BAD9-1103FAAA76F4},,,MPD,2024/02/16 21:02:52+00,2518,
-77.0207419057084,38.9156432537676,12089021,600 block of T St NW,2012/06/26 04:00:00+00,2040-2100,2012/06/27 04:00:00+00,2012,6,1D,Ward 2,Sexual Orientation,,ADW,800090,398201.36,138641.17,38.91563546,-77.02073961,,{A56318DF-0F5D-4A59-B126-8C950DDB3809},,,MPD,2024/02/16 21:02:52+00,2519,
-76.9767816621276,38.8704586890465,12092554,1900 block of Minnesota Ave Ave SE,2012/06/30 04:00:00+00,0837-0840,2012/07/03 04:00:00+00,2012,7,6D,Ward 8,Gender Identity/Expression,,Simple Assault,806143,402015.08,133625.38,38.87045091,-76.97677939,,{651E2685-157B-48CB-9656-4294A327A704},,,MPD,2024/02/16 21:02:52+00,2520,
-77.0203194081405,38.9156017095009,12091566,600 block of Florida Ave NW,2012/07/01 04:00:00+00,0300-0330,2012/07/01 04:00:00+00,2012,7,3D,Ward 2,Sexual Orientation,,Simple Assault,810091,398238,138636.55,38.91559392,-77.02031712,,{467CA422-39AB-4D8A-AB1B-71595154A6E2},,,MPD,2024/02/16 21:02:52+00,2521,
-77.0416836705711,38.9192095534576,12091731,2200 block of 18th St NW,2012/07/01 04:00:00+00,2250,2012/07/01 04:00:00+00,2012,7,3D,Ward 1,Sexual Orientation,,Simple Assault,811212,396385.37,139037.68,38.91920176,-77.04168137,,{B258C853-E2DD-4B13-9807-BF0AF113AAFC},,,MPD,2024/02/16 21:02:52+00,2522,
-77.0392772426287,38.9140993512525,12092003,New Hampshire Ave NW and S St NW,2012/07/01 04:00:00+00,1900-1903,2012/07/01 04:00:00+00,2012,7,2D,Ward 2,Ethnicity/National Origin,Asian,Simple Assault,900574,396593.81250679,138470.31250993,38.91409156,-77.03927495,,{F2CC3EFB-AF3B-4ADD-8F8A-8A0E40681212},,,MPD,2024/02/16 21:02:52+00,2523,
-77.0319515669748,38.9088455543765,12101740,14th St NW and Rhode Island Ave NW,2012/07/17 04:00:00+00,1330,2012/07/17 04:00:00+00,2012,7,3D,Ward 2,Disability,,Simple Assault,906402,397228.93999538,137886.85001339,38.90883777,-77.03194927,,{453088C8-CD87-4222-85F6-DCC16337F666},,,MPD,2024/02/16 21:02:52+00,2524,
-77.0219173103399,38.9021091423304,12109242,7th St NW and K St NW,2012/08/04 04:00:00+00,0400,2012/08/04 04:00:00+00,2012,8,1D,Ward 6,Sexual Orientation,,Robbery,900796,398099.06249219,137138.7968927,38.90210135,-77.02191502,,{C7C5A33B-CB96-448A-BF89-9976BB154B95},,,MPD,2024/02/16 21:02:52+00,2525,
-76.9348344094435,38.8837408335444,12110368,E St SE and Benning Rd SE,2012/08/06 04:00:00+00,1500,2012/08/06 04:00:00+00,2012,8,6D,Ward 7,Sexual Orientation,,Robbery,910993,405654.2000032,135101.55999481,38.88373305,-76.93483215,,{A57F6FDC-C2C4-44B6-8F90-4A9007A6E848},,,MPD,2024/02/16 21:02:52+00,2526,
-77.0161764760636,38.9031350770795,12112229,1000 block of 4th St NW,2012/08/10 04:00:00+00,0045,2012/08/10 04:00:00+00,2012,8,Unk,Ward 6,Gender Identity/Expression,,Simple Assault,806790,398597.05,137252.58,38.90312729,-77.01617419,,{BEB5098E-7032-453C-8A26-2E71140D56BF},,,MPD,2024/02/16 21:02:52+00,2527,
-77.0199081040202,38.8990680375135,12113128,700 block of 6th St NW,2012/08/11 04:00:00+00,1746,2012/08/11 04:00:00+00,2012,8,1D,Ward 2,Religion,Jewish,Threats,813230,398273.27,136801.17,38.89906025,-77.01990581,,{C9EA8415-4B37-46C5-BD7C-50B486EF575A},,,MPD,2024/02/16 21:02:52+00,2528,
-77.0234512794588,38.8984605766108,12114937,800 block of G St NW,2012/08/15 04:00:00+00,1050,2012/08/15 04:00:00+00,2012,8,1D,Ward 2,Political Affiliation,,ADW,803164,397965.9,136733.81,38.89845279,-77.02344899,,{F37473B7-C3B3-4BFF-9D87-86F8423AC95E},,,MPD,2024/02/16 21:02:52+00,2529,
-77.0058880059918,38.9042176819162,12116716,1100 block of 1st St NE,2012/08/18 04:00:00+00,1745,2012/08/18 04:00:00+00,2012,8,5D,Ward 6,Sexual Orientation,,Threats,800351,399489.48,137372.65,38.90420989,-77.00588572,,{743A4752-C1BC-483E-A29E-B5ACD169A255},,,MPD,2024/02/16 21:02:52+00,2530,
-76.9780501243839,38.8698269945566,12117324,1800 block of Minnesota Ave SE,2012/08/19 04:00:00+00,2130-2135,2012/08/19 04:00:00+00,2012,8,6D,Ward 8,Gender Identity/Expression,,ADW,806952,401905.02,133555.23,38.86981921,-76.97804785,,{10597305-74B3-4E5C-8462-679934F36FA4},,,MPD,2024/02/16 21:02:52+00,2531,
-77.0027709554849,38.8422470178505,12118951,3300 block of Martin Luther King Jr Ave,2012/08/23 04:00:00+00,0241,2012/08/23 04:00:00+00,2012,8,7D,Ward 8,Sexual Orientation,,Simple Assault,806338,399759.64,130493.43,38.84223924,-77.00276867,,{3CBB4ADA-1594-46E7-805F-BCB53B2499D3},,,MPD,2024/02/16 21:02:52+00,2532,
-76.9408964487506,38.8990711001312,12046039,4200 block of Gault Pl NE,2012/08/23 04:00:00+00,1200-1800,2012/04/04 04:00:00+00,2012,4,6D,Ward 7,Sexual Orientation,,Threats,812613,405127.13389071,136802.98121238,38.89906331,-76.94089418,,{F1934FDF-A1BF-46AF-8BBD-AC1ED281EA06},,,MPD,2024/02/16 21:02:52+00,2533,
-77.0204640208903,38.9128501777204,12119254,600 block of Rhode Island Ave NW,2012/08/23 04:00:00+00,1656,2012/08/23 04:00:00+00,2012,8,3D,Ward 2,Sexual Orientation,,Simple Assault,813924,398225.39,138331.11,38.91284239,-77.02046173,,{939F9BB0-ED99-406A-BEC7-12DC66FFEAD3},,,MPD,2024/02/16 21:02:52+00,2534,
-77.0017464232429,38.8216374744507,12120516,4700 block of South Capitol St SE,2012/08/25 04:00:00+00,2353,2012/08/25 04:00:00+00,2012,8,7D,Ward 8,Sexual Orientation,,ADW,809409,399848.54,128205.63,38.8216297,-77.00174414,,{E102763A-7D03-452A-80C8-8A703DEB9868},,,MPD,2024/02/16 21:02:52+00,2535,
-77.0498076748133,38.9079418949156,12121983,1300 block of 23rd St NW,2012/08/29 04:00:00+00,0010-0031,2012/08/29 04:00:00+00,2012,8,2D,Ward 2,Sexual Orientation,,Robbery,814994,395680.17,137787.23,38.90793411,-77.04980538,,{AC6E5279-85CF-4E35-8DF3-8AE600181048},,,MPD,2024/02/16 21:02:52+00,2536,
-76.9767816621276,38.8704586890465,12123570,1900 block of Minnesota Ave SE,2012/08/31 04:00:00+00,2353,2012/08/31 04:00:00+00,2012,8,6D,Ward 8,Sexual Orientation,,Robbery,806143,402015.08,133625.38,38.87045091,-76.97677939,,{C225CA9C-365D-4535-A021-5036B7546320},,,MPD,2024/02/16 21:02:52+00,2537,
-77.0327321588336,38.9295246790098,12124273,3100 block of 14th St NW,2012/09/02 04:00:00+00,1411,2012/09/02 04:00:00+00,2012,9,3D,Ward 1,Religion,Other/Unknown Religion,Robbery,800897,397162.06,140182.43,38.92951689,-77.03272986,,{C2A100C1-87D0-4522-8314-D417C30EDADD},,,MPD,2024/02/16 21:02:52+00,2538,
-77.0319549011012,38.9196324071323,12128457,2200 block of 14th St NW,2012/09/11 04:00:00+00,0207,2012/09/11 04:00:00+00,2012,9,3D,Ward 1,Sexual Orientation,,Simple Assault,810063,397229.07,139084.28,38.91962462,-77.03195261,,{734A83B2-20FA-46ED-9869-F67D9705AD81},,,MPD,2024/02/16 21:02:52+00,2539,
-77.0249810378749,38.9126143617263,12132265,900 block of R St NW,2012/09/18 04:00:00+00,1802,2012/09/18 04:00:00+00,2012,9,3D,Ward 2,Sexual Orientation,,ADW,812494,397833.63,138305.03,38.91260657,-77.02497875,,{C9071DBC-5D6C-4499-8911-ACCB57899917},,,MPD,2024/02/16 21:02:52+00,2540,
-77.0205163749403,38.9329126043312,12141095,3500 block of Warder St NW,2012/10/05 04:00:00+00,0800-1947,2012/10/05 04:00:00+00,2012,10,4D,Ward 1,Sexual Orientation,,Damage/Defacing/Destruction of Property,810158,398221.35,140558.21,38.93290481,-77.02051408,,{36BB8E7A-F723-41ED-8E71-82088FCB076C},,,MPD,2024/02/16 21:02:52+00,2541,
-77.042569950854,38.9056616800266,12146636,1800 block of M St NW,2012/10/12 04:00:00+00,1800-0820,2012/10/12 04:00:00+00,2012,10,2D,Ward 2,Religion,Jewish,Damage/Defacing/Destruction of Property,809121,396307.81,137533.79,38.90565389,-77.04256765,,{4B1F1D0C-F7A6-4723-A07B-E834F7A1933E},,,MPD,2024/02/16 21:02:52+00,2542,
-76.925887868039,38.8977676697387,12148536,600 block of Division Ave NE,2012/10/20 04:00:00+00,2258,2012/10/20 04:00:00+00,2012,10,6D,Ward 7,Gender Identity/Expression,,Simple Assault,814997,406429.17,136659.24,38.89775988,-76.92588561,,{39B60EFF-697A-4A2B-B98C-A4E69D50B083},,,MPD,2024/02/16 21:02:52+00,2543,
-77.0425766146644,38.9025328057819,12151408,1800 block of K St NW,2012/10/25 04:00:00+00,1800-1151 ,2012/10/26 04:00:00+00,2012,10,2D,Ward 2,Religion,Jewish,Damage/Defacing/Destruction of Property,805384,396307.07,137186.46,38.90252502,-77.04257432,,{B789CAE4-6265-4A0C-BD60-EF20534835BC},,,MPD,2024/02/16 21:02:52+00,2544,
-77.0342679950758,38.9335847338783,12151904,1400 block of Meridian Pl ,2012/10/27 04:00:00+00,0412,2012/10/27 04:00:00+00,2012,10,4D,Ward 1,Race,Unspecified,Robbery,802153,397029.06,140633.18,38.93357694,-77.0342657,,{CF6754EF-C1AB-469A-A508-E0603DF2B70F},,,MPD,2024/02/16 21:02:52+00,2545,
-76.9959211429107,38.8506876823411,12153620,2700 block of Martin Luther King Jr Ave SE,2012/10/30 04:00:00+00,1230,2012/10/30 04:00:00+00,2012,10,7D,Ward 8,Sexual Orientation,,Simple Assault,802612,400354.25833428,131430.4068714,38.8506799,-76.99591886,,{D01C8CD1-F9AC-4F5B-BE45-5F6D548FA64B},,,MPD,2024/02/16 21:02:52+00,2546,
-76.9979062078073,38.9242465878383,12156229,600 block of Edgewood St NE,2012/11/05 05:00:00+00,1954,2012/11/05 05:00:00+00,2012,11,5D,Ward 5,Sexual Orientation,,Simple Assault,804594,400181.76,139596.01,38.92423879,-76.99790392,,{225BA53E-3B8E-4E71-9391-BEE9BEF9B7C2},,,MPD,2024/02/16 21:02:52+00,2547,
-77.0327957447313,38.9025305560349,12162862,1400 block of K St NW,2012/11/19 05:00:00+00,1452,2012/11/19 05:00:00+00,2012,11,2D,Ward 2,Race,Black,Simple Assault,805270,397155.47,137185.86,38.90252277,-77.03279345,,{81805021-5AAA-4324-8010-4DF0160614AA},,,MPD,2024/02/16 21:02:52+00,2548,
-76.9882790537111,38.9054773310025,12164492,Montello Ave NE and Oates St NE,2012/11/23 05:00:00+00,1000,2012/11/23 05:00:00+00,2012,11,5D,Ward 5,Sexual Orientation,,Robbery,905902,401016.8399989,137512.53001304,38.90546954,-76.98827677,,{E81F7586-C1EB-4DE9-9B35-F743ABFC4AF8},,,MPD,2024/02/16 21:02:52+00,2549,
-77.0174001253449,38.916337440979,12171834,1900 block of 4th ST NW,2012/12/07 05:00:00+00,1900,2012/12/08 05:00:00+00,2012,12,3D,Ward 1,Race,Black,Damage/Defacing/Destruction of Property,809359,398491.19,138718.17,38.91632965,-77.01739784,,{4DC310BC-7C3D-4942-A6E5-FFCAD9771110},,,MPD,2024/02/16 21:02:52+00,2550,
-77.0308500517259,38.9616800814931,12173827,1300 block of Missouri Ave NW,2012/12/12 05:00:00+00,1746,2012/12/12 05:00:00+00,2012,12,4D,Ward 4,Sexual Orientation,,Robbery,808087,397326.46,143751.91,38.96167228,-77.03084775,,{4C9DC559-D152-474E-8761-4A6A6597CE88},,,MPD,2024/02/16 21:02:52+00,2551,
-77.0755392082405,38.9620806155793,13000464,3800 block of Legation St NW,2013/01/02 05:00:00+00,1324,2013/01/02 05:00:00+00,2013,1,2D,Ward 3,Religion,Jewish,Damage/Defacing/Destruction of Property,806248,393453.34,143798.63,38.96207282,-77.0755369,,{D2162C64-ADFA-496C-B1ED-C73E5388A513},,,MPD,2024/02/16 21:02:52+00,2552,
-77.0677183852033,38.9591945660292,13000847,5300 block of Nebraska Ave NW,2013/01/02 05:00:00+00,1600-0915,2013/01/03 05:00:00+00,2013,1,2D,Ward 3,Religion,Jewish,Damage/Defacing/Destruction of Property,811886,394130.92,143477.72,38.95918677,-77.06771608,,{65D600EB-1F71-49B9-B0F0-FBEAB0F10007},,,MPD,2024/02/16 21:02:52+00,2553,
-76.9307982909007,38.8806290855823,13001980,5000 block of G St SE,2013/01/05 05:00:00+00,1952,2013/01/05 05:00:00+00,2013,1,6D,Ward 7,Gender Identity/Expression,,ADW,815559,406004.65,134756.39,38.8806213,-76.93079603,,{4593C3A3-AE96-4491-A31A-6AC45E7B41DD},,,MPD,2024/02/16 21:02:52+00,2554,
-77.0327321588336,38.9295246790098,13005159,3100 block of 14th St NW,2013/01/12 05:00:00+00,1500,2013/01/12 05:00:00+00,2013,1,3D,Ward 1,Sexual Orientation,,Simple Assault,800897,397162.06,140182.43,38.92951689,-77.03272986,,{B09DA03C-D42C-490D-BD92-0BCEAA4A7D6D},,,MPD,2024/02/16 21:02:52+00,2555,
-77.0375014904977,38.9126167791993,17200228,1600 block of R St NW,2017/11/19 05:00:00+00,0318,2017/11/19 05:00:00+00,2017,11,3D,Ward 2,Sexual Orientation,,Simple Assault,812936,396747.75,138305.67,38.91260899,-77.03749919,,{63873A0F-BD55-439A-98B8-99E687E3CDCD},,,MPD,2024/02/16 21:02:52+00,2556,
-77.0246367626532,38.9170041971694,17200709,900 block of U St NW,2017/11/20 05:00:00+00,0051,2017/11/20 05:00:00+00,2017,11,3D,Ward 1,Sexual Orientation,,ADW,813703,397863.62,138792.33,38.91699641,-77.02463447,,{3621AEAD-3150-481E-80A8-A97BF6F250CD},,,MPD,2024/02/16 21:02:52+00,2557,
-77.0144522349979,38.9025247167714,17201401,200 block of K St NW,2017/11/21 05:00:00+00,0940,2017/11/21 05:00:00+00,2017,11,1D,Ward 6,Ethnicity/National Origin,Jewish,Damage/Defacing/Destruction of Property,810843,398746.6,137184.8,38.90251693,-77.01444995,,{F3F8E29C-A527-4DF1-8A86-6BA8E580499D},,,MPD,2024/02/16 21:02:52+00,2558,
-77.0194228624104,38.8998185157102,17206791,500 block of H St NW,2017/11/23 05:00:00+00,1500,2017/11/30 05:00:00+00,2017,11,1D,Ward 2,Ethnicity/National Origin,Jewish,Damage/Defacing/Destruction of Property,800244,398315.38,136884.47,38.89981073,-77.01942057,,{93D3E2C7-BEB7-4573-83A7-3E10DCD4F8C8},,,MPD,2024/02/16 21:02:52+00,2559,
-77.054758077416,38.9089794231404,17203063,1400 block of 26th St NW,2017/11/23 05:00:00+00,0830,2017/11/24 05:00:00+00,2017,11,2D,Ward 2,Ethnicity/National Origin,Jewish,Damage/Defacing/Destruction of Property,803613,395250.87,137902.65,38.90897164,-77.05475578,,{B858C947-4F27-4330-A382-BFEE3ACAB01C},,,MPD,2024/02/16 21:02:52+00,2560,
-77.0797638790927,38.9213077130878,17203090,2300 block of 40th Pl NW,2017/11/23 05:00:00+00,2230,2017/11/24 05:00:00+00,2017,11,2D,Ward 3,Race,Black,Damage/Defacing/Destruction of Property,812367,393083.24,139272.79,38.92129992,-77.07976157,,{D4A2A0AC-64F3-484C-B765-9D59E3AF0353},,,MPD,2024/02/16 21:02:52+00,2561,
-77.0239715111157,38.9103933863641,17203324,1500 block of 9th St NW,2017/11/24 05:00:00+00,1947,2017/11/24 05:00:00+00,2017,11,3D,Ward 2,Ethnicity/National Origin,Arab/Middle Eastern,Simple Assault,808547,397921.12,138058.46,38.9103856,-77.02396922,,{AD84239A-8F68-45D2-B0C7-87E1CD585639},,,MPD,2024/02/16 21:02:52+00,2562,
-77.0192056177811,38.9013306047836,17204268,500 block of I St NW,2017/11/26 05:00:00+00,1348,2017/11/26 05:00:00+00,2017,11,1D,Ward 6,Ethnicity/National Origin,Jewish,Damage/Defacing/Destruction of Property,801981,398334.26,137052.32,38.90132282,-77.01920333,,{FAE304A4-7543-4452-B111-CC2A866C2F86},,,MPD,2024/02/16 21:02:52+00,2563,
-77.0171919882222,38.9005312464722,17204180,400 block of Massachusetts Ave NW,2017/11/26 05:00:00+00,0855,2017/11/26 05:00:00+00,2017,11,1D,Ward 6,Ethnicity/National Origin,Jewish,Damage/Defacing/Destruction of Property,806146,398508.91,136963.55,38.90052346,-77.0171897,,{60D3D002-DBB3-46C7-BADA-F61750A45827},,,MPD,2024/02/16 21:02:52+00,2564,
-77.0219183028132,38.9014934488253,17204700,900 block of 7th St NW,2017/11/27 05:00:00+00,1041,2017/11/27 05:00:00+00,2017,11,1D,Ward 2,Ethnicity/National Origin,Jewish,Damage/Defacing/Destruction of Property,814494,398098.96,137070.45,38.90148566,-77.02191601,,{6D7117DC-B7DB-4A18-99CE-BF24DBC6254E},,,MPD,2024/02/16 21:02:52+00,2565,
-77.025020644115,38.9032476534395,17206400,900 block of Massachusetts Ave NW,2017/11/29 05:00:00+00,1731,2017/11/29 05:00:00+00,2017,11,2D,Ward 2,Race,Black,Damage/Defacing/Destruction of Property,812637,397829.91,137265.25,38.90323987,-77.02501835,,{54F83A7E-6781-464B-A1B0-31439DF6F197},,,MPD,2024/02/16 21:02:52+00,2566,
-76.9931424855264,38.9222243975062,17207984,900 block of Rhode Island Ave NE,2017/12/02 05:00:00+00,1254,2017/12/02 05:00:00+00,2017,12,5D,Ward 5,Ethnicity/National Origin,Unspecified,Simple Assault,814008,400594.86,139371.55,38.9222166,-76.9931402,,{D8C51AAA-B679-49E2-A1D8-44B3F981C005},,,MPD,2024/02/16 21:02:52+00,2567,
-76.9358486687529,38.8910596717357,17207852,100 block of 46th Pl NE,2017/12/02 05:00:00+00,0544,2017/12/02 05:00:00+00,2017,12,6D,Ward 7,Sexual Orientation,,Simple Assault,814357,405565.62829112,135913.94524356,38.89105188,-76.93584641,,{A971B519-713A-4453-890A-B28861718C60},,,MPD,2024/02/16 21:02:52+00,2568,
-77.0090510278181,38.9129797179654,17210790,1700 block of North Capitol St NE,2017/12/06 05:00:00+00,2340,2017/12/07 05:00:00+00,2017,12,5D,Ward 5,Race,Black,ADW,800093,399215.22,138345.33,38.91297193,-77.00904874,,{4CBCBD42-8377-4B7D-A050-2083D7F9FC6C},,,MPD,2024/02/16 21:02:52+00,2569,
-77.0013118493133,38.886777274007,17211297,300 block of Pennsylvania Ave SE,2017/12/07 05:00:00+00,1950,2017/12/07 05:00:00+00,2017,12,1D,Ward 6,Race,Black,Simple Assault,809147,399886.38214185,135436.61119512,38.88676949,-77.00130957,,{5A775C0A-6617-49FE-A970-9D2109889900},,,MPD,2024/02/16 21:02:52+00,2570,
-77.0147886703067,38.8954446425989,17214121,400 block of 2nd St NW,2017/12/12 05:00:00+00,1912,2017/12/12 05:00:00+00,2017,12,1D,Ward 6,Ethnicity/National Origin,Jewish,Damage/Defacing/Destruction of Property,279729,398717.29,136398.86,38.89543686,-77.01478638,,{5846E8E6-A09C-400C-9809-B5FC732744B4},,,MPD,2024/02/16 21:02:52+00,2571,
-77.032592571693,38.9281795966996,17215419,3000 block of 14th ST NW,2017/12/14 05:00:00+00,2316,2017/12/13 05:00:00+00,2017,12,3D,Ward 1,Sexual Orientation,,ADW,806449,397174.11,140033.11,38.9281718,-77.03259028,,{216E3183-002B-4482-8538-C26BC6FDB7F8},,,MPD,2024/02/16 21:02:52+00,2572,
-77.0678449609779,38.9055065035041,17217042,1200 block of 34th St NW,2017/12/17 05:00:00+00,0940,2017/12/17 05:00:00+00,2017,12,2D,Ward 2,Race,Black,Damage/Defacing/Destruction of Property,808214,394115.52,137517.89,38.90549872,-77.06784266,,{C958E119-1F9E-468F-B65E-152ED5C490EE},,,MPD,2024/02/16 21:02:52+00,2573,
-77.0376834267387,38.9859162649488,17220567,1600 block of Kalmia RD NW,2017/12/23 05:00:00+00,1600,2017/12/23 05:00:00+00,2017,12,4D,Ward 4,Race,Black,Threats,806432,396735.33,146442.58,38.98590846,-77.03768113,,{7915B7A3-63D5-44A7-A062-AB2AA768020D},,,MPD,2024/02/16 21:02:52+00,2574,
